"_id",cityId,cityName,currentInfo,customerAmount,customerHouseRatio,districtThrId,districtThrName,districtTwoId,districtTwoName,duration,houseAmount,latitude,listPrice,listPrice1,listPrice2,listPrice3,listPrice4,longitude,month,referencePrice,referencePrice1,referencePrice2,referencePrice3,referencePrice4,showAmount,transPrice
5ab23158e43c7932fccb3a3a,110000,北京,"[{'transPrice': 34283, 'latitude': 39.775174, 'name': '加州水郡三期', 'quanpin_url': 'c1111027377579', 'longitude': 116.170059, 'id': 1111027377579}, {'transPrice': 32261, 'latitude': 39.767012, 'name': '碧桂园小区C区', 'quanpin_url': 'c1111027375833', 'longitude': 116.175983, 'id': 1111027375833}, {'transPrice': 43882, 'latitude': 39.767185, 'name': '长阳半岛2号院', 'quanpin_url': 'c1111043052734', 'longitude': 116.212774, 'id': 1111043052734}, {'transPrice': 34811, 'latitude': 39.771077, 'name': '加州水郡四期', 'quanpin_url': 'c1111027377578', 'longitude': 116.16608, 'id': 1111027377578}, {'transPrice': 42039, 'latitude': 39.767955, 'name': '首开熙悦山澜庭', 'quanpin_url': 'c1111053451645', 'longitude': 116.221857, 'id': 1111053451645}, {'transPrice': 50094, 'latitude': 39.765558, 'name': '长阳半岛4号院', 'quanpin_url': 'c1111055984553', 'longitude': 116.213828, 'id': 1111055984553}, {'transPrice': 43628, 'latitude': 39.766293, 'name': '芭蕾雨悦都南区', 'quanpin_url': 'c1111054115302', 'longitude': 116.193275, 'id': 1111054115302}, {'transPrice': 42072, 'latitude': 39.778845, 'name': '首创新悦都', 'quanpin_url': 'c1111056093957', 'longitude': 116.192392, 'id': 1111056093957}, {'transPrice': 29600, 'latitude': 39.756632, 'name': '碧波园', 'quanpin_url': 'c1111027375720', 'longitude': 116.186217, 'id': 1111027375720}, {'transPrice': 42984, 'latitude': 39.768297, 'name': '长阳半岛1号院', 'quanpin_url': 'c1111053689921', 'longitude': 116.211223, 'id': 1111053689921}, {'transPrice': 42307, 'latitude': 39.765408, 'name': '长阳半岛3号院', 'quanpin_url': 'c1111055972401', 'longitude': 116.21141, 'id': 1111055972401}, {'transPrice': 40715, 'latitude': 39.777521, 'name': '国际花园', 'quanpin_url': 'c1111062781766', 'longitude': 116.194945, 'id': 1111062781766}, {'transPrice': 38972, 'latitude': 39.763178, 'name': '原香小镇二区', 'quanpin_url': 'c1111052908124', 'longitude': 116.171634, 'id': 1111052908124}, {'transPrice': 48781, 'latitude': 39.76569, 'name': '长阳半岛怡和路1号院', 'quanpin_url': 'c1111053691810', 'longitude': 116.224572, 'id': 1111053691810}, {'transPrice': 43300, 'latitude': 39.768886, 'name': '芭蕾雨悦都北区', 'quanpin_url': 'c1111054088145', 'longitude': 116.190634, 'id': 1111054088145}, {'transPrice': 41085, 'latitude': 39.774199, 'name': '首开熙悦山熹园1号院', 'quanpin_url': 'c1111053376817', 'longitude': 116.223518, 'id': 1111053376817}, {'transPrice': 41745, 'latitude': 39.774211, 'name': '首开熙悦山熹园3号院', 'quanpin_url': 'c1111047062835', 'longitude': 116.222386, 'id': 1111047062835}, {'transPrice': 39327, 'latitude': 39.763726, 'name': '长阳国际城二区', 'quanpin_url': 'c1111053458322', 'longitude': 116.224012, 'id': 1111053458322}, {'transPrice': 40587, 'latitude': 39.807356, 'name': '金域缇香', 'quanpin_url': 'c1111053885744', 'longitude': 116.221799, 'id': 1111053885744}, {'transPrice': 39128, 'latitude': 39.762892, 'name': '原香小镇一区', 'quanpin_url': 'c1111027382164', 'longitude': 116.169065, 'id': 1111027382164}, {'transPrice': 32795, 'latitude': 39.765512, 'name': '碧桂园小区二区', 'quanpin_url': 'c1111027375831', 'longitude': 116.172813, 'id': 1111027375831}, {'transPrice': 40854, 'latitude': 39.76392, 'name': '长阳国际城一区', 'quanpin_url': 'c1111053464799', 'longitude': 116.223565, 'id': 1111053464799}, {'transPrice': 32472, 'latitude': 39.780755, 'name': '天泰新景', 'quanpin_url': 'c1111027380035', 'longitude': 116.227892, 'id': 1111027380035}, {'transPrice': 32531, 'latitude': 39.778533, 'name': '九洲溪雅苑二区', 'quanpin_url': 'c1111027381428', 'longitude': 116.182548, 'id': 1111027381428}, {'transPrice': 37543, 'latitude': 39.802262, 'name': '长景新园', 'quanpin_url': 'c1111045965035', 'longitude': 116.225785, 'id': 1111045965035}, {'transPrice': 42478, 'latitude': 39.774477, 'name': '建邦华庭西区', 'quanpin_url': 'c1111046319521', 'longitude': 116.217497, 'id': 1111046319521}, {'transPrice': 36945, 'latitude': 39.760938, 'name': '绿地新都会', 'quanpin_url': 'c1111052857099', 'longitude': 116.16963, 'id': 1111052857099}, {'transPrice': 30514, 'latitude': 39.767123, 'name': '碧桂园小区A区', 'quanpin_url': 'c1111027375834', 'longitude': 116.17041, 'id': 1111027375834}, {'transPrice': 47364, 'latitude': 39.765773, 'name': '长阳半岛怡和路3号院', 'quanpin_url': 'c1111053691362', 'longitude': 116.222039, 'id': 1111053691362}, {'transPrice': 40262, 'latitude': 39.761305, 'name': '长阳国际城三区', 'quanpin_url': 'c1111053389754', 'longitude': 116.225111, 'id': 1111053389754}]","[0, 0, 0, 0, 0, 0, 0, 0, 0, 0, 0, 0]","[None, None, None, None, None, None, None, None, None, None, None, None]",611100697,长阳,,,"['3月', '4月', '5月', '6月', '7月', '8月', '9月', '10月', '11月', '12月', '1月', '2月']","[416, 214, 271, 303, 303, 315, 286, 223, 284, 299, 336, 202]",39.778933275862,"[47083, 46996, 45519, 46321, 45207, 46691, 44785, 43535, 42101, 42931, 41700, 41450]","[41762, 46035, 45514, 46353, 38261, 40314, 37912, 38942, 40205, 38667, 36859, 37336]","[46278, 46456, 45039, 44211, 43414, 43047, 41299, 41121, 39907, 40608, 39184, 39529]","[49240, 48446, 46155, 49048, 49152, 50304, 48672, 46552, 44716, 45430, 44165, 44012]","[54523, 41526, 45227, 50932, 56495, 46342, 44575, 45950, 50527, 49325, 47825, 47283]",116.21077243525,"['03月', '04月', '05月', '06月', '07月', '08月', '09月', '10月', '11月', '12月', '01月', '02月']","[43113, 43849, 43634, 41587, 40745, 39346, 39414, 40179, 37860, 37484, 37413, 37827]","[43444, 43913, 43663, 42595, 41698, 40323, 41001, 41708, 38668, 38656, 38467, 38859]","[44665, 45168, 44787, 42571, 41484, 40085, 40175, 40417, 38272, 38009, 38099, 38410]","[45305, 46004, 45974, 43720, 43210, 41520, 41967, 42638, 40459, 39822, 39532, 39945]","[47071, 48011, 48215, 46879, 46183, 44346, 45153, 46146, 44590, 45731, 45470, 46445]","[7348, 3411, 3529, 3194, 4426, 4023, 4748, 4480, 4717, 5368, 5911, 2785]",37827
5ab23158e43c7932fccb3a3b,110000,北京,"[{'transPrice': 43699, 'latitude': 39.895417, 'name': '格兰晴天', 'quanpin_url': 'c1111027374633', 'longitude': 116.679562, 'id': 1111027374633}, {'transPrice': 53118, 'latitude': 39.895533, 'name': '远洋东方公馆', 'quanpin_url': 'c1111045735114', 'longitude': 116.683292, 'id': 1111045735114}, {'transPrice': 42435, 'latitude': 39.895196, 'name': '玉桥南里', 'quanpin_url': 'c1111027381970', 'longitude': 116.690108, 'id': 1111027381970}, {'transPrice': 40530, 'latitude': 39.894711, 'name': '幸福艺居', 'quanpin_url': 'c1111027380732', 'longitude': 116.695911, 'id': 1111027380732}, {'transPrice': 47928, 'latitude': 39.894296, 'name': '柳岸方园', 'quanpin_url': 'c1111027377707', 'longitude': 116.685886, 'id': 1111027377707}, {'transPrice': 35466, 'latitude': 39.896787, 'name': '玉桥东里', 'quanpin_url': 'c1111027381951', 'longitude': 116.692569, 'id': 1111027381951}, {'transPrice': 50483, 'latitude': 39.897128, 'name': '合生滨江帝景一期', 'quanpin_url': 'c1111050695480', 'longitude': 116.69968, 'id': 1111050695480}, {'transPrice': 43500, 'latitude': 39.896649, 'name': '美然百度城', 'quanpin_url': 'c1111027378378', 'longitude': 116.697277, 'id': 1111027378378}, {'transPrice': 45563, 'latitude': 39.89669, 'name': '京艺天朗', 'quanpin_url': 'c1111027377541', 'longitude': 116.693396, 'id': 1111027377541}, {'transPrice': 42985, 'latitude': 39.892968, 'name': '源泉苑', 'quanpin_url': 'c1111027381978', 'longitude': 116.696181, 'id': 1111027381978}, {'transPrice': 43802, 'latitude': 39.892027, 'name': '景馨家园', 'quanpin_url': 'c1111027377443', 'longitude': 116.692947, 'id': 1111027377443}, {'transPrice': 53079, 'latitude': 39.895073, 'name': '合生滨江帝景二期', 'quanpin_url': 'c1111053932142', 'longitude': 116.700772, 'id': 1111053932142}, {'transPrice': 42425, 'latitude': 39.893065, 'name': '玉桥西里70号院', 'quanpin_url': 'c1111027381975', 'longitude': 116.679544, 'id': 1111027381975}, {'transPrice': 56118, 'latitude': 39.897203, 'name': '欣艺景园', 'quanpin_url': 'c1111027381368', 'longitude': 116.69133, 'id': 1111027381368}, {'transPrice': 45592, 'latitude': 39.896165, 'name': '京艺天朗雅园', 'quanpin_url': 'c1111027377542', 'longitude': 116.695318, 'id': 1111027377542}, {'transPrice': 39689, 'latitude': 39.8924, 'name': '玉桥东路19号院', 'quanpin_url': 'c1111027381952', 'longitude': 116.694456, 'id': 1111027381952}, {'transPrice': 41264, 'latitude': 39.897936, 'name': '公路局家属楼', 'quanpin_url': 'c1111027374629', 'longitude': 116.679113, 'id': 1111027374629}, {'transPrice': 37918, 'latitude': 39.892193, 'name': '妇幼家属楼', 'quanpin_url': 'c1111027374419', 'longitude': 116.69027, 'id': 1111027374419}, {'transPrice': 36451, 'latitude': 39.897092, 'name': '玉桥南里11号', 'quanpin_url': 'c1111027381989', 'longitude': 116.686515, 'id': 1111027381989}, {'transPrice': None, 'latitude': 39.898093, 'name': '紫光花园', 'quanpin_url': 'c1111027382421', 'longitude': 116.681161, 'id': 1111027382421}, {'transPrice': None, 'latitude': 39.893438, 'name': '光明小区', 'quanpin_url': 'c1111027374672', 'longitude': 116.690396, 'id': 1111027374672}, {'transPrice': None, 'latitude': 39.897908, 'name': '电厂家属楼', 'quanpin_url': 'c1111027376776', 'longitude': 116.703169, 'id': 1111027376776}, {'transPrice': None, 'latitude': 39.897692, 'name': '运河西大街242号院', 'quanpin_url': 'c1111050026864', 'longitude': 116.680992, 'id': 1111050026864}]","[0, 0, 0, 0, 0, 0, 0, 0, 0, 0, 0, 0]","[None, None, None, None, None, None, None, None, None, None, None, None]",611100536,玉桥,,,"['3月', '4月', '5月', '6月', '7月', '8月', '9月', '10月', '11月', '12月', '1月', '2月']","[48, 37, 47, 29, 23, 29, 34, 34, 29, 20, 22, 25]",39.893913289099,"[57871, 59067, 57448, 57092, 53180, 55158, 51570, 51773, 50635, 50100, 50297, 50393]","[57323, 59392, 58638, 57591, 49779, 46966, 47215, 47742, 45278, 46050, 42829, 44157]","[57086, 57677, 57054, 55658, 53527, 52975, 51134, 49141, 47858, 47762, 43482, 50218]","[61495, 62072, 57036, 57650, 56950, 59329, 55749, 56900, 55995, 58267, 58235, 52879]","[52569, 53874, 57573, 69766, 84661, 55952, 51793, 60846, 79478, 66834, 70000, 63015]",116.6934724889,"['03月', '04月', '05月', '06月', '07月', '08月', '09月', '10月', '11月', '12月', '01月', '02月']","[55116, 56565, 54235, 51652, 49033, 48335, 48990, 46264, 44235, 43470, 44623, 44318]","[55948, 58201, 55640, 52681, 49168, 49901, 49094, 45837, 43628, 43363, 44718, 44907]","[56223, 57228, 54769, 52189, 49052, 48394, 48269, 45722, 44054, 42727, 43844, 43763]","[53360, 54633, 52647, 49988, 47567, 46184, 46707, 43959, 42172, 42219, 43655, 43192]","[51716, 53302, 51227, 48007, 47505, 47085, 45959, 43273, 41369, 41714, 43605, 43359]","[1331, 926, 678, 748, 981, 632, 825, 831, 903, 816, 688, 290]",44318
5ab23158e43c7932fccb3a3c,110000,北京,"[{'transPrice': 40814, 'latitude': 40.031538, 'name': '樱花园二区', 'quanpin_url': 'c1111027381746', 'longitude': 116.632799, 'id': 1111027381746}, {'transPrice': 28340, 'latitude': 40.031531, 'name': '樱花园一区', 'quanpin_url': 'c1111027381757', 'longitude': 116.636725, 'id': 1111027381757}, {'transPrice': 28553, 'latitude': 40.033796, 'name': '樱花园三区', 'quanpin_url': 'c1111027381751', 'longitude': 116.632377, 'id': 1111027381751}, {'transPrice': 26026, 'latitude': 40.037801, 'name': '樱花园六区', 'quanpin_url': 'c1111027381748', 'longitude': 116.63386, 'id': 1111027381748}]","[0, 0, 0, 0, 0, 0, 0, 0, 0, 0, 0, 0]","[None, None, None, None, None, None, None, None, None, None, None, None]",611100361,李桥,,,"['3月', '4月', '5月', '6月', '7月', '8月', '9月', '10月', '11月', '12月', '1月', '2月']","[50, 35, 29, 19, 19, 26, 23, 17, 18, 22, 18, 10]",40.03593512556,"[40271, 38827, 38895, 38375, 34529, 37804, 35905, 36347, 35341, 34632, 34310, 39575]","[54707, 51312, 52829, 50005, 48226, 46805, 43925, 45200, 43309, 45787, 48434, 51732]","[35667, 36240, 35795, 36236, 29604, 33098, 31705, 31698, 31833, 32833, 32962, 31141]","[33337, 33809, 32572, 33652, 29756, 29092, 29604, 30230, 30357, 30160, 30220, 31262]","[28926, 28792, 38300, 26095, 26558, 36998, 35432, 30513, 28853, 29473, 27015, None]",116.6469470339,"['03月', '04月', '05月', '06月', '07月', '08月', '09月', '10月', '11月', '12月', '01月', '02月']","[33973, 34121, 34924, 35978, 35112, 33142, 30335, 31773, 31586, 33484, 32311, 30933]","[37614, 40419, 38286, 37732, 38188, 35525, 35800, 36410, 35807, 35941, 34758, 36563]","[32155, 32461, 31848, 32132, 31140, 28523, 29203, 30741, 27911, 30970, 31276, 30249]","[28957, 29809, 29246, 29400, 30264, 26458, 27175, 26184, 25134, 26332, 26225, 25532]","[24630, 25883, 24333, 24462, 23944, 23156, 22452, 22879, 21734, 24605, 22539, 23017]","[497, 316, 308, 320, 382, 216, 366, 121, 175, 101, 162, 80]",30933
5ab23159e43c7932fccb3a3d,110000,北京,"[{'transPrice': 44410, 'latitude': 40.186753, 'name': '香悦四季', 'quanpin_url': 'c1111027381403', 'longitude': 116.665923, 'id': 1111027381403}, {'transPrice': 37504, 'latitude': 40.190146, 'name': '鲁能7号院颐景溪园', 'quanpin_url': 'c1111027378015', 'longitude': 116.669984, 'id': 1111027378015}, {'transPrice': 38559, 'latitude': 40.21342, 'name': '龙湖香醍漫步四区北区', 'quanpin_url': 'c1111046636893', 'longitude': 116.678059, 'id': 1111046636893}, {'transPrice': 31819, 'latitude': 40.180093, 'name': '佳和宜园', 'quanpin_url': 'c1111027377188', 'longitude': 116.655693, 'id': 1111027377188}, {'transPrice': 39906, 'latitude': 40.21128, 'name': '龙湖香醍漫步四区南区', 'quanpin_url': 'c1111046636894', 'longitude': 116.676506, 'id': 1111046636894}, {'transPrice': 41323, 'latitude': 40.189938, 'name': '中铁花溪渡', 'quanpin_url': 'c1111046316550', 'longitude': 116.664815, 'id': 1111046316550}, {'transPrice': 30471, 'latitude': 40.18394, 'name': '马坡花园二区', 'quanpin_url': 'c1111027378373', 'longitude': 116.661657, 'id': 1111027378373}, {'transPrice': 32445, 'latitude': 40.180564, 'name': '马坡花园一区', 'quanpin_url': 'c1111027378374', 'longitude': 116.661432, 'id': 1111027378374}, {'transPrice': 38813, 'latitude': 40.209832, 'name': '龙湖香醍漫步一区', 'quanpin_url': 'c1111027377882', 'longitude': 116.673912, 'id': 1111027377882}, {'transPrice': 35717, 'latitude': 40.185553, 'name': '泰和谊园', 'quanpin_url': 'c1111027379853', 'longitude': 116.654713, 'id': 1111027379853}, {'transPrice': 49098, 'latitude': 40.209956, 'name': '龙湖香醍漫步二区', 'quanpin_url': 'c1111027377879', 'longitude': 116.670768, 'id': 1111027377879}, {'transPrice': 48356, 'latitude': 40.187552, 'name': '鲁能7号院颐景润园', 'quanpin_url': 'c1113425634192440', 'longitude': 116.669684, 'id': 1113425634192440}, {'transPrice': 36808, 'latitude': 40.16261, 'name': '富力湾', 'quanpin_url': 'c1111027374293', 'longitude': 116.667827, 'id': 1111027374293}, {'transPrice': 39418, 'latitude': 40.212794, 'name': '龙湖香醍漫步三区', 'quanpin_url': 'c1111027377880', 'longitude': 116.671037, 'id': 1111027377880}, {'transPrice': 37803, 'latitude': 40.183199, 'name': '金宝城北区', 'quanpin_url': 'c1111027376985', 'longitude': 116.669568, 'id': 1111027376985}, {'transPrice': 37695, 'latitude': 40.188277, 'name': '鲁能7号院水岸公馆', 'quanpin_url': 'c1111062691224', 'longitude': 116.672685, 'id': 1111062691224}, {'transPrice': 37101, 'latitude': 40.209575, 'name': '恒华安纳湖', 'quanpin_url': 'c1111041859637', 'longitude': 116.666246, 'id': 1111041859637}, {'transPrice': 34903, 'latitude': 40.206885, 'name': '纳帕尔湾', 'quanpin_url': 'c1111027378572', 'longitude': 116.671558, 'id': 1111027378572}, {'transPrice': 39433, 'latitude': 40.19117, 'name': '鲁能7号别墅', 'quanpin_url': 'c1111062694423', 'longitude': 116.669484, 'id': 1111062694423}, {'transPrice': 27682, 'latitude': 40.16455, 'name': '龙苑别墅', 'quanpin_url': 'c1111027378175', 'longitude': 116.670192, 'id': 1111027378175}, {'transPrice': 45426, 'latitude': 40.179868, 'name': '金宝城南区', 'quanpin_url': 'c1111027376992', 'longitude': 116.66777, 'id': 1111027376992}, {'transPrice': 30612, 'latitude': 40.2153, 'name': '康乐小区', 'quanpin_url': 'c1111027377643', 'longitude': 116.663845, 'id': 1111027377643}, {'transPrice': 36142, 'latitude': 40.189702, 'name': '北辰墅院1900', 'quanpin_url': 'c1113761851962171', 'longitude': 116.658326, 'id': 1113761851962171}, {'transPrice': 28531, 'latitude': 40.175922, 'name': '恒丰花园', 'quanpin_url': 'c1111027374949', 'longitude': 116.677039, 'id': 1111027374949}, {'transPrice': 42624, 'latitude': 40.208969, 'name': '恒华湖公馆', 'quanpin_url': 'c118123598255074', 'longitude': 116.666261, 'id': 118123598255074}, {'transPrice': 29253, 'latitude': 40.216677, 'name': '张庄家园', 'quanpin_url': 'c1111027382782', 'longitude': 116.676225, 'id': 1111027382782}, {'transPrice': 41188, 'latitude': 40.217555, 'name': '维尼纶家属楼', 'quanpin_url': 'c1111042930831', 'longitude': 116.66535, 'id': 1111042930831}, {'transPrice': 24633, 'latitude': 40.173504, 'name': '阳光花园别墅', 'quanpin_url': 'c1111027381662', 'longitude': 116.679415, 'id': 1111027381662}, {'transPrice': 25413, 'latitude': 40.173175, 'name': '阳光别墅', 'quanpin_url': 'c1111027381654', 'longitude': 116.676439, 'id': 1111027381654}, {'transPrice': 23302, 'latitude': 40.210519, 'name': '牛栏山恒华西街1号院', 'quanpin_url': 'c1111046093731', 'longitude': 116.662763, 'id': 1111046093731}]","[0, 0, 0, 0, 0, 0, 0, 0, 0, 0, 0, 0]","[None, None, None, None, None, None, None, None, None, None, None, None]",611100362,马坡,,,"['3月', '4月', '5月', '6月', '7月', '8月', '9月', '10月', '11月', '12月', '1月', '2月']","[104, 95, 84, 106, 76, 108, 98, 120, 113, 86, 89, 75]",40.183775,"[43538, 43653, 42519, 43346, 41653, 40700, 40566, 41773, 40904, 40328, 40295, 40297]","[46843, 46659, 48569, 47196, 35235, 34944, 37267, 43727, 40869, 40772, 41428, 42764]","[42555, 44246, 44041, 44166, 42174, 40599, 39979, 41221, 40347, 38315, 39271, 38531]","[44345, 44003, 41274, 44277, 42263, 41589, 41243, 41166, 41405, 41289, 41626, 40019]","[40982, 40116, 42457, 39551, 39591, 40266, 40244, 44740, 39906, 40748, 38970, 43215]",116.648812,"['03月', '04月', '05月', '06月', '07月', '08月', '09月', '10月', '11月', '12月', '01月', '02月']","[36848, 37677, 37338, 35990, 34833, 33534, 34635, 34693, 33234, 34318, 35263, 35807]","[37181, 38969, 38173, 36560, 33552, 33579, 34219, 35730, 33959, 34986, 35816, 38246]","[41909, 43917, 42174, 40513, 38982, 37965, 38181, 36566, 34740, 35593, 36165, 36789]","[39162, 40179, 39910, 37994, 36565, 35367, 36740, 36601, 34430, 35276, 36496, 37445]","[35583, 36503, 35935, 34708, 33997, 32933, 34233, 36338, 34330, 35734, 37459, 37942]","[3017, 1378, 1713, 1491, 1865, 1533, 2039, 1623, 1345, 1729, 1744, 819]",35807
5ab2315ae43c7932fccb3a3e,110000,北京,"[{'transPrice': 42066, 'latitude': 40.110054, 'name': '万科城市花园', 'quanpin_url': 'c1111027380329', 'longitude': 116.560168, 'id': 1111027380329}, {'transPrice': 43626, 'latitude': 40.094933, 'name': '蓝星花园', 'quanpin_url': 'c1111027378136', 'longitude': 116.560389, 'id': 1111027378136}, {'transPrice': 50910, 'latitude': 40.093, 'name': '空港吉祥花园', 'quanpin_url': 'c1111027377441', 'longitude': 116.560215, 'id': 1111027377441}, {'transPrice': 58964, 'latitude': 40.097129, 'name': '中粮祥云国际生活区', 'quanpin_url': 'c1111041170735', 'longitude': 116.543161, 'id': 1111041170735}, {'transPrice': 59130, 'latitude': 40.117154, 'name': '江山赋', 'quanpin_url': 'c1111027377343', 'longitude': 116.559953, 'id': 1111027377343}, {'transPrice': 41680, 'latitude': 40.112912, 'name': '双裕小区', 'quanpin_url': 'c1111027379693', 'longitude': 116.561056, 'id': 1111027379693}, {'transPrice': 43939, 'latitude': 40.113521, 'name': '双裕花园西区', 'quanpin_url': 'c1111027379646', 'longitude': 116.555368, 'id': 1111027379646}, {'transPrice': 49090, 'latitude': 40.116654, 'name': '香花畦家园', 'quanpin_url': 'c1111027380863', 'longitude': 116.554991, 'id': 1111027380863}, {'transPrice': 42235, 'latitude': 40.107876, 'name': '裕祥花园', 'quanpin_url': 'c1111027382147', 'longitude': 116.554715, 'id': 1111027382147}, {'transPrice': 43001, 'latitude': 40.113935, 'name': '双裕花园东区', 'quanpin_url': 'c1111027379645', 'longitude': 116.559275, 'id': 1111027379645}, {'transPrice': 39577, 'latitude': 40.103325, 'name': '三山新新家园', 'quanpin_url': 'c1111027379566', 'longitude': 116.541005, 'id': 1111027379566}, {'transPrice': 48590, 'latitude': 40.103666, 'name': '智地香蜜湾', 'quanpin_url': 'c1111027382348', 'longitude': 116.545553, 'id': 1111027382348}, {'transPrice': 28244, 'latitude': 40.12408, 'name': '东亚创展国际', 'quanpin_url': 'c1111047377071', 'longitude': 116.563472, 'id': 1111047377071}, {'transPrice': 35368, 'latitude': 40.12549, 'name': '青岚花园', 'quanpin_url': 'c1111027378855', 'longitude': 116.550148, 'id': 1111027378855}, {'transPrice': 54443, 'latitude': 40.107599, 'name': '莫奈花园', 'quanpin_url': 'c1111027378368', 'longitude': 116.53916, 'id': 1111027378368}, {'transPrice': 50631, 'latitude': 40.119359, 'name': '阿凯笛亚庄园', 'quanpin_url': 'c1111027375618', 'longitude': 116.534301, 'id': 1111027375618}, {'transPrice': 45776, 'latitude': 40.1154, 'name': '后街花园', 'quanpin_url': 'c1111027375077', 'longitude': 116.545444, 'id': 1111027375077}, {'transPrice': 52472, 'latitude': 40.11153, 'name': '阿凯笛亚别院', 'quanpin_url': 'c1111040862943', 'longitude': 116.552627, 'id': 1111040862943}, {'transPrice': 45740, 'latitude': 40.100989, 'name': '水青庭', 'quanpin_url': 'c1111027379534', 'longitude': 116.539586, 'id': 1111027379534}, {'transPrice': 41874, 'latitude': 40.11463, 'name': '德国印象', 'quanpin_url': 'c1111027376892', 'longitude': 116.554694, 'id': 1111027376892}, {'transPrice': 48160, 'latitude': 40.111765, 'name': '国兴城', 'quanpin_url': 'c1111046293090', 'longitude': 116.564988, 'id': 1111046293090}, {'transPrice': 54631, 'latitude': 40.114033, 'name': '明德家园', 'quanpin_url': 'c1111046320030', 'longitude': 116.557842, 'id': 1111046320030}, {'transPrice': 63572, 'latitude': 40.138362, 'name': '春晖园随园', 'quanpin_url': 'c1111063141174', 'longitude': 116.496274, 'id': 1111063141174}, {'transPrice': 44654, 'latitude': 40.115382, 'name': '聚通嘉园', 'quanpin_url': 'c1111027377404', 'longitude': 116.544325, 'id': 1111027377404}, {'transPrice': 17235, 'latitude': 40.093083, 'name': '空港融慧园', 'quanpin_url': 'c1111046913981', 'longitude': 116.553505, 'id': 1111046913981}, {'transPrice': None, 'latitude': 40.130512, 'name': '万科观承别墅', 'quanpin_url': 'c1111100899666', 'longitude': 116.499396, 'id': 1111100899666}, {'transPrice': None, 'latitude': 40.109496, 'name': '观林阁', 'quanpin_url': 'c1111046902129', 'longitude': 116.55132, 'id': 1111046902129}, {'transPrice': None, 'latitude': 40.106266, 'name': '金地中央世家', 'quanpin_url': 'c1111063141851', 'longitude': 116.543201, 'id': 1111063141851}, {'transPrice': None, 'latitude': 40.111874, 'name': '白露雅园西区', 'quanpin_url': 'c1111046261260', 'longitude': 116.555367, 'id': 1111046261260}, {'transPrice': None, 'latitude': 40.111557, 'name': '吉祥雅筑', 'quanpin_url': 'c1111044976587', 'longitude': 116.5511, 'id': 1111044976587}]","[0, 0, 0, 0, 0, 0, 0, 0, 0, 0, 0, 0]","[None, None, None, None, None, None, None, None, None, None, None, None]",611100364,后沙峪,,,"['3月', '4月', '5月', '6月', '7月', '8月', '9月', '10月', '11月', '12月', '1月', '2月']","[120, 92, 73, 85, 154, 157, 127, 102, 101, 139, 92, 72]",40.114151325143,"[57975, 59309, 56859, 57311, 53316, 54639, 55646, 53281, 53290, 51795, 50011, 49383]","[63226, 63147, 59787, 58686, 42634, 48441, 52043, 52100, 48782, 51421, 50451, 54095]","[58979, 62641, 59475, 56125, 60484, 57519, 52779, 54235, 54440, 53362, 51384, 50609]","[56111, 57566, 57826, 57305, 52698, 52677, 55149, 51785, 55472, 47810, 48136, 48189]","[53611, 53035, 55328, 58953, 52352, 53637, 55658, 55586, 49563, 59377, 48963, 46481]",116.53679095194,"['03月', '04月', '05月', '06月', '07月', '08月', '09月', '10月', '11月', '12月', '01月', '02月']","[45776, 47018, 46673, 43600, 44041, 42966, 43631, 43267, 43729, 43423, 43125, 43758]","[44254, 45377, 44507, 42296, 42814, 41715, 41513, 42450, 41731, 41040, 40856, 41382]","[48818, 50574, 49566, 46862, 47476, 46062, 46232, 45375, 45199, 44890, 44538, 44923]","[44815, 46460, 45249, 42903, 43181, 42106, 41872, 41230, 41743, 42238, 43237, 43796]","[47533, 48176, 48030, 47327, 46080, 45247, 46351, 45634, 47080, 47046, 46933, 47247]","[3181, 1333, 1741, 1674, 1703, 1644, 1895, 1409, 1552, 1549, 1672, 935]",43758
5ab2315ae43c7932fccb3a3f,110000,北京,"[{'transPrice': 25091, 'latitude': 39.719194, 'name': '中国铁建原香漫谷', 'quanpin_url': 'c1111055835409', 'longitude': 116.016123, 'id': 1111055835409}, {'transPrice': 26361, 'latitude': 39.710515, 'name': '中冶蓝城', 'quanpin_url': 'c1111055902990', 'longitude': 116.014265, 'id': 1111055902990}, {'transPrice': 27562, 'latitude': 39.698222, 'name': '永安西里北区', 'quanpin_url': 'c1111053770066', 'longitude': 115.988645, 'id': 1111053770066}, {'transPrice': 19527, 'latitude': 39.715074, 'name': '万宁小区', 'quanpin_url': 'c1111041745468', 'longitude': 115.988457, 'id': 1111041745468}, {'transPrice': 20217, 'latitude': 39.699319, 'name': '永安家园', 'quanpin_url': 'c1111027381492', 'longitude': 115.988654, 'id': 1111027381492}, {'transPrice': 25871, 'latitude': 39.697334, 'name': '九洲兴达家园B区', 'quanpin_url': 'c1111027377584', 'longitude': 115.990728, 'id': 1111027377584}, {'transPrice': 22510, 'latitude': 39.694566, 'name': '矿机社区', 'quanpin_url': 'c1111055725441', 'longitude': 115.995674, 'id': 1111055725441}, {'transPrice': 20020, 'latitude': 39.702251, 'name': '兴房大街12号院', 'quanpin_url': 'c1111055767438', 'longitude': 115.99881, 'id': 1111055767438}, {'transPrice': 21034, 'latitude': 39.69425, 'name': '永兴家园', 'quanpin_url': 'c1111046242947', 'longitude': 115.991545, 'id': 1111046242947}, {'transPrice': 23937, 'latitude': 39.71237, 'name': '府东里社区', 'quanpin_url': 'c1111055901602', 'longitude': 116.01939, 'id': 1111055901602}, {'transPrice': 15959, 'latitude': 39.724633, 'name': '富燕新村一区', 'quanpin_url': 'c1111027374433', 'longitude': 115.99356, 'id': 1111027374433}, {'transPrice': 26757, 'latitude': 39.709432, 'name': '仓房小区', 'quanpin_url': 'c1111055679303', 'longitude': 115.991992, 'id': 1111055679303}, {'transPrice': 18895, 'latitude': 39.694951, 'name': '良工佳苑', 'quanpin_url': 'c1111027377838', 'longitude': 115.991496, 'id': 1111027377838}, {'transPrice': 22923, 'latitude': 39.695266, 'name': '九洲兴达家园A区', 'quanpin_url': 'c1111027377583', 'longitude': 115.990048, 'id': 1111027377583}, {'transPrice': 23593, 'latitude': 39.714186, 'name': '北关东路', 'quanpin_url': 'c1111056210780', 'longitude': 115.989766, 'id': 1111056210780}, {'transPrice': 29929, 'latitude': 39.71167, 'name': '城关北里社区', 'quanpin_url': 'c1111027376398', 'longitude': 115.993219, 'id': 1111027376398}, {'transPrice': 11261, 'latitude': 39.710404, 'name': '洪顺家园A区', 'quanpin_url': 'c1111055301299', 'longitude': 115.977922, 'id': 1111055301299}, {'transPrice': 14626, 'latitude': 39.692143, 'name': '农林路', 'quanpin_url': 'c1111055754965', 'longitude': 115.99112, 'id': 1111055754965}, {'transPrice': 18940, 'latitude': 39.708782, 'name': '福胜家园', 'quanpin_url': 'c1111027374338', 'longitude': 115.993963, 'id': 1111027374338}, {'transPrice': 21629, 'latitude': 39.701216, 'name': '管道局社区', 'quanpin_url': 'c1111055023654', 'longitude': 115.990451, 'id': 1111055023654}, {'transPrice': 19194, 'latitude': 39.701904, 'name': '兴房大街18号院', 'quanpin_url': 'c1111055770201', 'longitude': 115.997247, 'id': 1111055770201}, {'transPrice': 22102, 'latitude': 39.713222, 'name': '北关大街', 'quanpin_url': 'c1111055840106', 'longitude': 115.990408, 'id': 1111055840106}, {'transPrice': 22108, 'latitude': 39.708045, 'name': '洪福家园', 'quanpin_url': 'c1111055300108', 'longitude': 115.98262, 'id': 1111055300108}, {'transPrice': 26179, 'latitude': 39.710068, 'name': '福星家园', 'quanpin_url': 'c1111055297681', 'longitude': 115.990805, 'id': 1111055297681}, {'transPrice': 19592, 'latitude': 39.6967, 'name': '农林路社区', 'quanpin_url': 'c1111055753228', 'longitude': 115.994605, 'id': 1111055753228}, {'transPrice': 21170, 'latitude': 39.693521, 'name': '祺兴缘家园', 'quanpin_url': 'c1111053022186', 'longitude': 115.991397, 'id': 1111053022186}, {'transPrice': 25151, 'latitude': 39.708269, 'name': '城关西大街', 'quanpin_url': 'c1111100270203', 'longitude': 115.98814, 'id': 1111100270203}, {'transPrice': 25360, 'latitude': 39.713024, 'name': '城北社区', 'quanpin_url': 'c1111027375800', 'longitude': 115.990842, 'id': 1111027375800}, {'transPrice': 29142, 'latitude': 39.710792, 'name': '房山北大寺街', 'quanpin_url': 'c1120020707337653', 'longitude': 115.992495, 'id': 1120020707337653}, {'transPrice': 15436, 'latitude': 39.707574, 'name': '山水家园', 'quanpin_url': 'c1111055306738', 'longitude': 115.981929, 'id': 1111055306738}]","[0, 0, 0, 0, 0, 0, 0, 0, 0, 0, 0, 0]","[None, None, None, None, None, None, None, None, None, None, None, None]",611100715,城关,,,"['3月', '4月', '5月', '6月', '7月', '8月', '9月', '10月', '11月', '12月', '1月', '2月']","[9, 2, 2, 4, 2, 2, 2, 3, 4, 2, 24, 26]",39.705279946636,"[36128, 33964, 32401, 31379, 31184, 31235, 25991, 30301, 25862, 24888, 27800, 28541]","[34961, 36654, 32417, 11341, 30345, 30296, 29493, None, None, None, 26639, 25866]","[37608, 32800, 30528, 33832, 32022, 29070, 27000, 30301, 25862, 24888, 27518, 28290]","[30598, 35129, 33899, 26474, 25359, 33941, 24981, None, None, None, 28253, 28837]","[None, None, 32476, 14569, None, 31117, 26000, None, None, None, None, None]",116.01236263707,"['03月', '04月', '05月', '06月', '07月', '08月', '09月', '10月', '11月', '12月', '01月', '02月']","[21111, 21094, 21345, 20143, 20588, 19833, 20339, 20818, 20429, 21104, 20979, 21745]","[28254, 28153, 27999, 26118, 26572, 25561, 26473, 27058, 25993, 26370, 25913, 26617]","[22102, 22068, 22384, 21081, 21517, 21266, 21720, 22198, 21764, 22343, 22106, 22917]","[19901, 19796, 20011, 19041, 19552, 18947, 19172, 19656, 19119, 20295, 20174, 20887]","[23061, 24346, 24202, 22475, 22811, 21800, 22852, 23442, 22786, 23375, 23109, 24422]","[3, 17, 0, 1, 1, 3, 0, 3, 3, 0, 19, 12]",21745
5ab2315be43c7932fccb3a40,110000,北京,"[{'transPrice': 62889, 'latitude': 39.810115, 'name': '林肯公园', 'quanpin_url': 'c1111027377957', 'longitude': 116.497474, 'id': 1111027377957}, {'transPrice': 54544, 'latitude': 39.799347, 'name': '金地格林小镇', 'quanpin_url': 'c1111027377054', 'longitude': 116.501794, 'id': 1111027377054}, {'transPrice': 56456, 'latitude': 39.795716, 'name': '上海沙龙', 'quanpin_url': 'c1111027379288', 'longitude': 116.504579, 'id': 1111027379288}, {'transPrice': 27922, 'latitude': 39.807662, 'name': '国融国际', 'quanpin_url': 'c1111027374693', 'longitude': 116.508181, 'id': 1111027374693}, {'transPrice': 55629, 'latitude': 39.799319, 'name': '郁金香舍', 'quanpin_url': 'c1111027381819', 'longitude': 116.508046, 'id': 1111027381819}, {'transPrice': 49556, 'latitude': 39.806319, 'name': '新康家园', 'quanpin_url': 'c1111027380989', 'longitude': 116.495037, 'id': 1111027380989}, {'transPrice': 51565, 'latitude': 39.829962, 'name': '金色漫香林二期', 'quanpin_url': 'c1111027377361', 'longitude': 116.527286, 'id': 1111027377361}, {'transPrice': 49757, 'latitude': 39.804081, 'name': '听涛雅苑', 'quanpin_url': 'c1111027380056', 'longitude': 116.497256, 'id': 1111027380056}, {'transPrice': 56155, 'latitude': 39.830749, 'name': '金色漫香林五期', 'quanpin_url': 'c1111040862976', 'longitude': 116.533188, 'id': 1111040862976}, {'transPrice': 49686, 'latitude': 39.807864, 'name': '星岛假日', 'quanpin_url': 'c1111027380663', 'longitude': 116.488974, 'id': 1111027380663}, {'transPrice': 27065, 'latitude': 39.800164, 'name': '荣京丽都', 'quanpin_url': 'c1111027379024', 'longitude': 116.51791, 'id': 1111027379024}, {'transPrice': 46658, 'latitude': 39.809326, 'name': '一品亦庄', 'quanpin_url': 'c1111027381943', 'longitude': 116.505206, 'id': 1111027381943}, {'transPrice': 44254, 'latitude': 39.805889, 'name': '东晶国际', 'quanpin_url': 'c1111027373716', 'longitude': 116.500382, 'id': 1111027373716}, {'transPrice': 38225, 'latitude': 39.808459, 'name': '博客雅居', 'quanpin_url': 'c1111027375963', 'longitude': 116.504424, 'id': 1111027375963}, {'transPrice': 42663, 'latitude': 39.80652, 'name': '富源里', 'quanpin_url': 'c1111027374424', 'longitude': 116.482461, 'id': 1111027374424}, {'transPrice': 53599, 'latitude': 39.830024, 'name': '金色漫香林一期', 'quanpin_url': 'c1111027377363', 'longitude': 116.529485, 'id': 1111027377363}, {'transPrice': 62575, 'latitude': 39.806241, 'name': '鹿鸣苑', 'quanpin_url': 'c1111027378014', 'longitude': 116.50642, 'id': 1111027378014}, {'transPrice': 39343, 'latitude': 39.824643, 'name': '三羊里', 'quanpin_url': 'c1111040863006', 'longitude': 116.524384, 'id': 1111040863006}, {'transPrice': 50090, 'latitude': 39.7967, 'name': '浉城百丽', 'quanpin_url': 'c1111027379098', 'longitude': 116.498417, 'id': 1111027379098}, {'transPrice': 45608, 'latitude': 39.80512, 'name': '星岛嘉园', 'quanpin_url': 'c1111027380664', 'longitude': 116.485785, 'id': 1111027380664}, {'transPrice': 40607, 'latitude': 39.826956, 'name': '小康家园', 'quanpin_url': 'c1111027380990', 'longitude': 116.527591, 'id': 1111027380990}, {'transPrice': 49485, 'latitude': 39.800651, 'name': '瀛景园', 'quanpin_url': 'c1111027381824', 'longitude': 116.484891, 'id': 1111027381824}, {'transPrice': 49856, 'latitude': 39.828866, 'name': '金色漫香林四期', 'quanpin_url': 'c1111040862975', 'longitude': 116.524034, 'id': 1111040862975}, {'transPrice': 42012, 'latitude': 39.827437, 'name': '小康东里', 'quanpin_url': 'c1111027380983', 'longitude': 116.530566, 'id': 1111027380983}, {'transPrice': 50386, 'latitude': 39.831815, 'name': '和成璟园', 'quanpin_url': 'c1111052077433', 'longitude': 116.535006, 'id': 1111052077433}, {'transPrice': 48673, 'latitude': 39.798212, 'name': '贵园南里丙区', 'quanpin_url': 'c1111027374812', 'longitude': 116.490411, 'id': 1111027374812}, {'transPrice': 47396, 'latitude': 39.803512, 'name': '莱茵河畔', 'quanpin_url': 'c1111027378185', 'longitude': 116.479443, 'id': 1111027378185}, {'transPrice': 46900, 'latitude': 39.80855, 'name': '一幅画卷', 'quanpin_url': 'c1111027381626', 'longitude': 116.499592, 'id': 1111027381626}, {'transPrice': 49995, 'latitude': 39.827384, 'name': '金色漫香林三期', 'quanpin_url': 'c1111027377362', 'longitude': 116.523423, 'id': 1111027377362}, {'transPrice': 55456, 'latitude': 39.796534, 'name': '天宝家园', 'quanpin_url': 'c1111027379751', 'longitude': 116.495541, 'id': 1111027379751}]","[0, 0, 0, 0, 0, 0, 0, 0, 0, 0, 0, 0]","[None, None, None, None, None, None, None, None, None, None, None, None]",18335750,亦庄,,,"['3月', '4月', '5月', '6月', '7月', '8月', '9月', '10月', '11月', '12月', '1月', '2月']","[101, 126, 134, 156, 468, 222, 204, 143, 142, 166, 147, 100]",39.798560397598,"[57538, 58368, 56913, 58565, 51195, 53980, 52901, 55421, 54429, 53337, 52085, 53734]","[57461, 58308, 56242, 61738, 44128, 50563, 47138, 55790, 54319, 52327, 49863, 51601]","[59876, 61245, 58658, 58739, 53751, 54629, 55608, 55048, 55668, 54781, 52890, 52479]","[54257, 55567, 55429, 57354, 52996, 55261, 52380, 52665, 52551, 52439, 51607, 54407]","[57857, 56152, 56224, 59054, 59603, 51939, 51168, 61266, 55899, 50611, 54296, 60236]",116.51774144154,"['03月', '04月', '05月', '06月', '07月', '08月', '09月', '10月', '11月', '12月', '01月', '02月']","[49007, 50714, 50953, 50810, 46760, 46500, 45160, 44923, 45097, 44852, 43657, 43889]","[49301, 51096, 51330, 51113, 46820, 46842, 45431, 45062, 45554, 45226, 44412, 44684]","[50109, 52250, 51828, 51427, 47183, 46959, 45713, 45221, 45251, 45165, 44020, 44047]","[48335, 50358, 50207, 49373, 45116, 45440, 43966, 43857, 44457, 44042, 43035, 43362]","[49565, 51901, 51496, 51843, 48261, 47410, 47002, 46875, 47659, 47264, 45769, 46037]","[8138, 1761, 2098, 1890, 2856, 2225, 2406, 2343, 2444, 2667, 2701, 1197]",43889
5ab2315be43c7932fccb3a41,110000,北京,"[{'transPrice': 33734, 'latitude': 39.728279, 'name': '观音寺南里', 'quanpin_url': 'c1111027374822', 'longitude': 116.355945, 'id': 1111027374822}, {'transPrice': 34974, 'latitude': 39.733154, 'name': '观音寺小区', 'quanpin_url': 'c1111027374824', 'longitude': 116.354548, 'id': 1111027374824}, {'transPrice': 39336, 'latitude': 39.727554, 'name': '海悦公馆', 'quanpin_url': 'c1111046635173', 'longitude': 116.353803, 'id': 1111046635173}, {'transPrice': 35243, 'latitude': 39.738296, 'name': '双河南里', 'quanpin_url': 'c1111027379275', 'longitude': 116.354542, 'id': 1111027379275}, {'transPrice': 34560, 'latitude': 39.737672, 'name': '观音寺北里', 'quanpin_url': 'c1111027374820', 'longitude': 116.355768, 'id': 1111027374820}, {'transPrice': 35353, 'latitude': 39.724513, 'name': '海子角东里', 'quanpin_url': 'c1111027375547', 'longitude': 116.361168, 'id': 1111027375547}, {'transPrice': 37032, 'latitude': 39.737223, 'name': '观音寺新区', 'quanpin_url': 'c1111027374823', 'longitude': 116.354638, 'id': 1111027374823}, {'transPrice': 32683, 'latitude': 39.71953, 'name': '海子角西里', 'quanpin_url': 'c1111027375550', 'longitude': 116.352517, 'id': 1111027375550}, {'transPrice': 33454, 'latitude': 39.722566, 'name': '海子角南里', 'quanpin_url': 'c1111027375549', 'longitude': 116.352966, 'id': 1111027375549}, {'transPrice': 35172, 'latitude': 39.721201, 'name': '辛店小区', 'quanpin_url': 'c1111027380685', 'longitude': 116.354399, 'id': 1111027380685}, {'transPrice': 34309, 'latitude': 39.727098, 'name': '海子角小区', 'quanpin_url': 'c1111027375551', 'longitude': 116.356443, 'id': 1111027375551}, {'transPrice': 31289, 'latitude': 39.716033, 'name': '林海园', 'quanpin_url': 'c1111027377888', 'longitude': 116.353793, 'id': 1111027377888}, {'transPrice': 36603, 'latitude': 39.726464, 'name': '宇丰苑', 'quanpin_url': 'c1111027381638', 'longitude': 116.353344, 'id': 1111027381638}, {'transPrice': 32016, 'latitude': 39.740165, 'name': '双河南里尚城', 'quanpin_url': 'c1112044387495319', 'longitude': 116.356274, 'id': 1112044387495319}]","[0, 0, 0, 0, 0, 0, 0, 0, 0, 0, 0, 0]","[None, None, None, None, None, None, None, None, None, None, None, None]",611100614,观音寺,,,"['3月', '4月', '5月', '6月', '7月', '8月', '9月', '10月', '11月', '12月', '1月', '2月']","[49, 30, 35, 36, 32, 33, 44, 34, 34, 38, 40, 41]",39.721821657381,"[44220, 45129, 43244, 42203, 41624, 41278, 39363, 39038, 37186, 36700, 36881, 36912]","[47267, 52552, 51772, 49679, 40809, 46645, 43807, 45361, 44795, 45366, 46190, 44402]","[44618, 44301, 43614, 42011, 41976, 41343, 39409, 39347, 36604, 37103, 36182, 38031]","[42923, 44222, 41215, 41615, 40667, 39297, 38494, 38294, 37148, 34577, 36193, 35139]","[31914, 33459, 42870, 18686, 29213, 41045, 39201, 28390, 30692, 33280, 33280, 29952]",116.35913068244,"['03月', '04月', '05月', '06月', '07月', '08月', '09月', '10月', '11月', '12月', '01月', '02月']","[40098, 40344, 39367, 38149, 37243, 35085, 34334, 34197, 33203, 33301, 32801, 34697]","[43768, 43426, 42024, 40910, 40948, 38164, 36973, 36772, 36290, 36056, 36250, 37701]","[40255, 41153, 39674, 39017, 37668, 35416, 34335, 34271, 33195, 33290, 32506, 34231]","[37758, 37584, 36809, 35099, 35216, 33071, 33229, 32421, 31776, 32505, 32638, 34517]","[32580, 31640, 30457, 29569, 28676, 27613, 27719, 27536, 26825, 26144, 24645, 26671]","[821, 506, 520, 439, 576, 403, 489, 534, 500, 498, 598, 291]",34697
5ab2315ee43c7932fccb3a42,110000,北京,"[{'transPrice': 46277, 'latitude': 40.132553, 'name': '万科四季花城', 'quanpin_url': 'c1111027380340', 'longitude': 116.646296, 'id': 1111027380340}, {'transPrice': 35945, 'latitude': 40.118729, 'name': '石园北区', 'quanpin_url': 'c1111027379626', 'longitude': 116.670101, 'id': 1111027379626}, {'transPrice': 37400, 'latitude': 40.137571, 'name': '西辛南区', 'quanpin_url': 'c1111027381324', 'longitude': 116.648422, 'id': 1111027381324}, {'transPrice': 43206, 'latitude': 40.125799, 'name': '怡馨家园', 'quanpin_url': 'c1111027382152', 'longitude': 116.654682, 'id': 1111027382152}, {'transPrice': 35318, 'latitude': 40.120667, 'name': '仓上小区', 'quanpin_url': 'c1111027376563', 'longitude': 116.660144, 'id': 1111027376563}, {'transPrice': 41786, 'latitude': 40.129754, 'name': '裕龙三区', 'quanpin_url': 'c1111027381876', 'longitude': 116.678194, 'id': 1111027381876}, {'transPrice': 39747, 'latitude': 40.14159, 'name': '胜利小区', 'quanpin_url': 'c1111027379463', 'longitude': 116.659056, 'id': 1111027379463}, {'transPrice': 36810, 'latitude': 40.137772, 'name': '东兴一区', 'quanpin_url': 'c1111027373997', 'longitude': 116.6709, 'id': 1111027373997}, {'transPrice': 34823, 'latitude': 40.14532, 'name': '双兴南区', 'quanpin_url': 'c1111027379614', 'longitude': 116.659297, 'id': 1111027379614}, {'transPrice': 36631, 'latitude': 40.123965, 'name': '滨河小区', 'quanpin_url': 'c1111027375861', 'longitude': 116.688628, 'id': 1111027375861}, {'transPrice': 37821, 'latitude': 40.137953, 'name': '前进花园石门苑', 'quanpin_url': 'c1111027378834', 'longitude': 116.639323, 'id': 1111027378834}, {'transPrice': 42596, 'latitude': 40.140872, 'name': '金汉绿港一区', 'quanpin_url': 'c1111027377168', 'longitude': 116.671806, 'id': 1111027377168}, {'transPrice': 35374, 'latitude': 40.116557, 'name': '石园东区', 'quanpin_url': 'c1111027379634', 'longitude': 116.673834, 'id': 1111027379634}, {'transPrice': 36568, 'latitude': 40.144305, 'name': '西辛北区', 'quanpin_url': 'c1111027381303', 'longitude': 116.649091, 'id': 1111027381303}, {'transPrice': 43658, 'latitude': 40.130253, 'name': '红杉一品', 'quanpin_url': 'c1111027375292', 'longitude': 116.653551, 'id': 1111027375292}, {'transPrice': 43306, 'latitude': 40.144246, 'name': '金汉绿港五区', 'quanpin_url': 'c1111027377167', 'longitude': 116.666256, 'id': 1111027377167}, {'transPrice': 44550, 'latitude': 40.142095, 'name': '金汉绿港三区', 'quanpin_url': 'c1111027377165', 'longitude': 116.66605, 'id': 1111027377165}, {'transPrice': 43383, 'latitude': 40.142858, 'name': '金汉绿港四区', 'quanpin_url': 'c1111027377166', 'longitude': 116.66841, 'id': 1111027377166}, {'transPrice': 34806, 'latitude': 40.113345, 'name': '石园南区', 'quanpin_url': 'c1111027379675', 'longitude': 116.668841, 'id': 1111027379675}, {'transPrice': 37246, 'latitude': 40.116534, 'name': '石园西区', 'quanpin_url': 'c1111027379692', 'longitude': 116.669988, 'id': 1111027379692}, {'transPrice': 37403, 'latitude': 40.127539, 'name': '裕龙四区', 'quanpin_url': 'c1111027381877', 'longitude': 116.678491, 'id': 1111027381877}, {'transPrice': 38664, 'latitude': 40.140733, 'name': '幸福东区', 'quanpin_url': 'c1111027380699', 'longitude': 116.665892, 'id': 1111027380699}, {'transPrice': 38699, 'latitude': 40.127185, 'name': '裕龙五区', 'quanpin_url': 'c1111027381881', 'longitude': 116.683117, 'id': 1111027381881}, {'transPrice': 46698, 'latitude': 40.128885, 'name': '建新北区', 'quanpin_url': 'c1111027377430', 'longitude': 116.659218, 'id': 1111027377430}, {'transPrice': 35866, 'latitude': 40.138289, 'name': '东兴二区', 'quanpin_url': 'c1111027373964', 'longitude': 116.673001, 'id': 1111027373964}, {'transPrice': 41468, 'latitude': 40.139456, 'name': '前进花园牡丹苑', 'quanpin_url': 'c1111027378833', 'longitude': 116.643868, 'id': 1111027378833}, {'transPrice': 41886, 'latitude': 40.147679, 'name': '阳光水岸', 'quanpin_url': 'c1111027381675', 'longitude': 116.664908, 'id': 1111027381675}, {'transPrice': 49122, 'latitude': 40.128078, 'name': '建新南区', 'quanpin_url': 'c1111027377451', 'longitude': 116.659766, 'id': 1111027377451}, {'transPrice': 34696, 'latitude': 40.143448, 'name': '前进花园一区', 'quanpin_url': 'c1111027378836', 'longitude': 116.639934, 'id': 1111027378836}, {'transPrice': 32499, 'latitude': 40.110591, 'name': '港馨家园东区', 'quanpin_url': 'c1111027374738', 'longitude': 116.697838, 'id': 1111027374738}]","[0, 0, 0, 0, 0, 0, 0, 0, 0, 0, 0, 0]","[None, None, None, None, None, None, None, None, None, None, None, None]",611100360,顺义城,,,"['3月', '4月', '5月', '6月', '7月', '8月', '9月', '10月', '11月', '12月', '1月', '2月']","[343, 229, 200, 168, 183, 300, 268, 244, 301, 341, 241, 193]",40.13596190287,"[47508, 47536, 46006, 44556, 43796, 43300, 43752, 43480, 42523, 41483, 41078, 41111]","[49268, 50262, 48041, 45886, 45304, 44475, 45098, 43505, 44644, 41551, 42307, 41986]","[48097, 47874, 45865, 45347, 43873, 42813, 43779, 43615, 42626, 41379, 40871, 40809]","[45795, 45713, 44747, 42439, 43146, 43311, 42694, 43356, 41351, 41631, 40915, 41418]","[40735, 43994, 45949, 41831, 42732, 43363, 43839, 40830, 40331, 41766, 39051, 36901]",116.65783086677,"['03月', '04月', '05月', '06月', '07月', '08月', '09月', '10月', '11月', '12月', '01月', '02月']","[42796, 44438, 43032, 40985, 40504, 38684, 39118, 39157, 37229, 36895, 36931, 36803]","[44968, 47313, 45182, 43243, 43184, 41068, 40736, 40738, 39395, 38807, 38714, 39082]","[43578, 45303, 43798, 41542, 41216, 39321, 39406, 39659, 38356, 37944, 37616, 37828]","[41300, 43018, 41597, 39798, 39579, 37493, 38222, 37854, 37037, 36989, 36464, 36662]","[39246, 41116, 39799, 38193, 38245, 36473, 37007, 36843, 35165, 34894, 34661, 34698]","[7865, 4723, 4784, 4078, 5343, 4462, 5279, 3917, 4280, 5691, 4972, 2176]",36803
5ab2315ee43c7932fccb3a43,110000,北京,"[{'transPrice': 40750, 'latitude': 39.73022, 'name': '车站北里', 'quanpin_url': 'c1111027376693', 'longitude': 116.340288, 'id': 1111027376693}, {'transPrice': 35439, 'latitude': 39.726005, 'name': '车站中里', 'quanpin_url': 'c1111027376726', 'longitude': 116.341599, 'id': 1111027376726}, {'transPrice': 38733, 'latitude': 39.729069, 'name': '林校北里', 'quanpin_url': 'c1111027378119', 'longitude': 116.347563, 'id': 1111027378119}, {'transPrice': 46683, 'latitude': 39.731545, 'name': '艺苑桐城', 'quanpin_url': 'c1111027382213', 'longitude': 116.33524, 'id': 1111027382213}, {'transPrice': 36680, 'latitude': 39.714942, 'name': '兴水家园', 'quanpin_url': 'c1111027381163', 'longitude': 116.337956, 'id': 1111027381163}, {'transPrice': 37376, 'latitude': 39.731149, 'name': '翰林庭院', 'quanpin_url': 'c1111027375150', 'longitude': 116.338916, 'id': 1111027375150}, {'transPrice': 35939, 'latitude': 39.722529, 'name': '义和庄北里', 'quanpin_url': 'c1111027381758', 'longitude': 116.335905, 'id': 1111027381758}, {'transPrice': 30973, 'latitude': 39.731851, 'name': '长兴公寓', 'quanpin_url': 'c1111027376621', 'longitude': 116.349041, 'id': 1111027376621}, {'transPrice': 35872, 'latitude': 39.722128, 'name': '锦华园', 'quanpin_url': 'c1111027377178', 'longitude': 116.333593, 'id': 1111027377178}, {'transPrice': 33882, 'latitude': 39.713665, 'name': '漪景园', 'quanpin_url': 'c1111027381827', 'longitude': 116.338014, 'id': 1111027381827}, {'transPrice': 38640, 'latitude': 39.721528, 'name': '义和庄东里', 'quanpin_url': 'c1111027381759', 'longitude': 116.337503, 'id': 1111027381759}, {'transPrice': 41400, 'latitude': 39.730199, 'name': '建兴家园', 'quanpin_url': 'c1111027377445', 'longitude': 116.342477, 'id': 1111027377445}, {'transPrice': 33614, 'latitude': 39.715071, 'name': '车站南里', 'quanpin_url': 'c1111027376715', 'longitude': 116.340438, 'id': 1111027376715}, {'transPrice': 36375, 'latitude': 39.726973, 'name': '林校中里', 'quanpin_url': 'c1111027378167', 'longitude': 116.350649, 'id': 1111027378167}, {'transPrice': 40441, 'latitude': 39.716162, 'name': '众美光合原筑', 'quanpin_url': 'c1110050071704116', 'longitude': 116.338905, 'id': 1110050071704116}, {'transPrice': 17833, 'latitude': 39.730101, 'name': '饮马井小区', 'quanpin_url': 'c1111027381903', 'longitude': 116.33189, 'id': 1111027381903}, {'transPrice': 22567, 'latitude': 39.717952, 'name': '义和庄东路', 'quanpin_url': 'c1111056411316', 'longitude': 116.333226, 'id': 1111056411316}, {'transPrice': None, 'latitude': 39.723003, 'name': '恒大翡翠华庭', 'quanpin_url': 'c1111063626236', 'longitude': 116.335728, 'id': 1111063626236}, {'transPrice': None, 'latitude': 39.716149, 'name': '光合原筑', 'quanpin_url': 'c1111052992772', 'longitude': 116.338632, 'id': 1111052992772}, {'transPrice': None, 'latitude': 39.724965, 'name': '七街回迁房', 'quanpin_url': 'c1111040862995', 'longitude': 116.344023, 'id': 1111040862995}, {'transPrice': None, 'latitude': 39.71775, 'name': '义和庄皮革公司住宅楼', 'quanpin_url': 'c1111045482958', 'longitude': 116.330781, 'id': 1111045482958}, {'transPrice': None, 'latitude': 39.728087, 'name': '兴华中路1号', 'quanpin_url': 'c1115435201808804', 'longitude': 116.34304, 'id': 1115435201808804}]","[0, 0, 0, 0, 0, 0, 0, 0, 0, 0, 0, 0]","[None, None, None, None, None, None, None, None, None, None, None, None]",611100612,黄村火车站,,,"['3月', '4月', '5月', '6月', '7月', '8月', '9月', '10月', '11月', '12月', '1月', '2月']","[51, 33, 29, 42, 31, 28, 38, 37, 41, 29, 34, 20]",39.720462304461,"[50127, 49122, 47353, 46620, 46451, 44154, 44070, 42187, 42828, 43864, 42134, 41430]","[49129, 52458, 49493, 48658, 48708, 40897, 46498, 42977, 48676, 55673, 47940, 43421]","[53079, 48708, 47935, 48954, 46334, 44192, 44385, 42260, 42476, 41865, 42409, 42193]","[44157, 48670, 43641, 42111, 48314, 44387, 43830, 42034, 41925, 41873, 40073, 40932]","[40410, 42367, 47347, 37500, 38195, 43910, 43840, 34780, 30020, 42546, 36853, 29198]",116.33673465899,"['03月', '04月', '05月', '06月', '07月', '08月', '09月', '10月', '11月', '12月', '01月', '02月']","[40731, 42152, 40653, 39086, 39323, 36244, 36844, 36388, 35525, 34196, 35016, 35482]","[45497, 46327, 45168, 45280, 46883, 43862, 42442, 41390, 40126, 40003, 40405, 41953]","[42505, 43990, 41838, 40875, 40192, 37113, 37067, 36384, 36117, 34766, 35525, 35963]","[39452, 40887, 39363, 38251, 37118, 34784, 35089, 34335, 33850, 32872, 34228, 35143]","[37766, 38627, 37845, 35809, 35898, 33745, 34345, 33203, 32268, 31294, 32553, 32976]","[1062, 655, 594, 515, 467, 338, 464, 491, 564, 713, 565, 253]",35482
5ab2315fe43c7932fccb3a44,110000,北京,"[{'transPrice': 55551, 'latitude': 39.780886, 'name': '保利茉莉公馆', 'quanpin_url': 'c1111027375995', 'longitude': 116.335491, 'id': 1111027375995}, {'transPrice': 48433, 'latitude': 39.781506, 'name': '顺驰领海', 'quanpin_url': 'c1111027379117', 'longitude': 116.325341, 'id': 1111027379117}, {'transPrice': 48884, 'latitude': 39.777363, 'name': '金惠园三里', 'quanpin_url': 'c1111027377184', 'longitude': 116.331607, 'id': 1111027377184}, {'transPrice': 44957, 'latitude': 39.777159, 'name': '青岛嘉园', 'quanpin_url': 'c1111027378794', 'longitude': 116.335764, 'id': 1111027378794}, {'transPrice': 52571, 'latitude': 39.777327, 'name': '翡翠城二期', 'quanpin_url': 'c1111027374138', 'longitude': 116.326148, 'id': 1111027374138}, {'transPrice': 53966, 'latitude': 39.781289, 'name': '翡翠城一期', 'quanpin_url': 'c1111027374141', 'longitude': 116.331299, 'id': 1111027374141}, {'transPrice': 44589, 'latitude': 39.779134, 'name': '金惠园二里', 'quanpin_url': 'c1111027377181', 'longitude': 116.33105, 'id': 1111027377181}, {'transPrice': 36018, 'latitude': 39.781366, 'name': '兴业大街', 'quanpin_url': 'c1111027381340', 'longitude': 116.32897, 'id': 1111027381340}, {'transPrice': 43147, 'latitude': 39.782838, 'name': '兴华大街', 'quanpin_url': 'c1111027380799', 'longitude': 116.336863, 'id': 1111027380799}, {'transPrice': None, 'latitude': 39.768847, 'name': '95855部队家属院', 'quanpin_url': 'c1111046838018', 'longitude': 116.359375, 'id': 1111046838018}]","[0, 0, 0, 0, 0, 0, 0, 0, 0, 0, 0, 0]","[None, None, None, None, None, None, None, None, None, None, None, None]",611100613,黄村北,,,"['3月', '4月', '5月', '6月', '7月', '8月', '9月', '10月', '11月', '12月', '1月', '2月']","[131, 101, 105, 120, 107, 112, 96, 92, 106, 115, 95, 30]",39.779494,"[59141, 59648, 57752, 56443, 57071, 57188, 57739, 57015, 56216, 55471, 55455, 56341]","[61209, 58395, 49506, 53241, 50926, 46804, 48970, 56022, 51959, 51713, 57008, 54875]","[58656, 58098, 58086, 56297, 56892, 55505, 55680, 53780, 53600, 53770, 52625, 54714]","[58333, 59667, 59637, 58129, 56906, 58376, 57861, 56083, 57093, 55624, 56864, 59000]","[61227, 65485, 57311, 53710, 60592, 57520, 58293, 63165, 63024, 59208, 59273, 56570]",116.333147,"['03月', '04月', '05月', '06月', '07月', '08月', '09月', '10月', '11月', '12月', '01月', '02月']","[57590, 59097, 57021, 54105, 53986, 51759, 50561, 50370, 49004, 46986, 47583, 47569]","[58303, 59127, 57530, 54446, 53509, 51038, 50651, 50332, 49365, 48094, 48490, 52722]","[58949, 59884, 57823, 54916, 54449, 51773, 51696, 50851, 49688, 47991, 48837, 47515]","[57720, 59092, 57671, 54400, 54342, 51476, 50477, 50976, 49156, 47754, 48468, 50074]","[54325, 55047, 53126, 50271, 50029, 47696, 46447, 47386, 46411, 44636, 46197, 47187]","[5154, 3743, 3952, 3323, 4639, 3281, 3087, 2740, 2828, 3157, 2944, 619]",47569
5ab2315fe43c7932fccb3a45,110000,北京,"[{'transPrice': 40968, 'latitude': 39.734779, 'name': '兴政西里', 'quanpin_url': 'c1111027381478', 'longitude': 116.341153, 'id': 1111027381478}, {'transPrice': 41707, 'latitude': 39.741186, 'name': '黄村西里', 'quanpin_url': 'c1111027374911', 'longitude': 116.340971, 'id': 1111027374911}, {'transPrice': 33845, 'latitude': 39.745873, 'name': '新安里', 'quanpin_url': 'c1111027380558', 'longitude': 116.36203, 'id': 1111027380558}, {'transPrice': 45673, 'latitude': 39.744008, 'name': '清澄名苑北区', 'quanpin_url': 'c1111027378789', 'longitude': 116.334907, 'id': 1111027378789}, {'transPrice': 43464, 'latitude': 39.744861, 'name': '富强西里', 'quanpin_url': 'c1111027374319', 'longitude': 116.341294, 'id': 1111027374319}, {'transPrice': 39633, 'latitude': 39.74026, 'name': '三合南里', 'quanpin_url': 'c1111027379274', 'longitude': 116.332219, 'id': 1111027379274}, {'transPrice': 38645, 'latitude': 39.745849, 'name': '富强东里', 'quanpin_url': 'c1111027374314', 'longitude': 116.350909, 'id': 1111027374314}, {'transPrice': 34268, 'latitude': 39.745721, 'name': '双河北里', 'quanpin_url': 'c1111027379255', 'longitude': 116.354697, 'id': 1111027379255}, {'transPrice': 43655, 'latitude': 39.741775, 'name': '清澄名苑南区', 'quanpin_url': 'c1111027378790', 'longitude': 116.335617, 'id': 1111027378790}, {'transPrice': 40465, 'latitude': 39.742059, 'name': '时代龙和', 'quanpin_url': 'c1111027379169', 'longitude': 116.349167, 'id': 1111027379169}, {'transPrice': 34983, 'latitude': 39.733387, 'name': '兴政东里', 'quanpin_url': 'c1111027381444', 'longitude': 116.350565, 'id': 1111027381444}, {'transPrice': 43245, 'latitude': 39.737634, 'name': '阳光乐府', 'quanpin_url': 'c1111027381667', 'longitude': 116.335445, 'id': 1111027381667}, {'transPrice': 38985, 'latitude': 39.73655, 'name': '永华北里', 'quanpin_url': 'c1111027381689', 'longitude': 116.330117, 'id': 1111027381689}, {'transPrice': 33985, 'latitude': 39.746706, 'name': '新居里', 'quanpin_url': 'c1111027380944', 'longitude': 116.362397, 'id': 1111027380944}, {'transPrice': 42034, 'latitude': 39.741504, 'name': '三合北巷', 'quanpin_url': 'c1111027379309', 'longitude': 116.327248, 'id': 1111027379309}, {'transPrice': 41306, 'latitude': 39.736315, 'name': '怡兴园', 'quanpin_url': 'c1111027382165', 'longitude': 116.335605, 'id': 1111027382165}, {'transPrice': 40487, 'latitude': 39.745523, 'name': '瑞康家园', 'quanpin_url': 'c1111027379031', 'longitude': 116.349707, 'id': 1111027379031}, {'transPrice': 39936, 'latitude': 39.737251, 'name': '星瑞家园', 'quanpin_url': 'c1111027381103', 'longitude': 116.331839, 'id': 1111027381103}, {'transPrice': 42918, 'latitude': 39.734351, 'name': '兴政家园', 'quanpin_url': 'c1111027381452', 'longitude': 116.338037, 'id': 1111027381452}, {'transPrice': 34765, 'latitude': 39.742226, 'name': '黄村东里', 'quanpin_url': 'c1111027374891', 'longitude': 116.351278, 'id': 1111027374891}, {'transPrice': 40766, 'latitude': 39.739906, 'name': '兴丰家园', 'quanpin_url': 'c1111027380708', 'longitude': 116.346448, 'id': 1111027380708}, {'transPrice': 39036, 'latitude': 39.740646, 'name': '博悦府', 'quanpin_url': 'c1111027376240', 'longitude': 116.333359, 'id': 1111027376240}, {'transPrice': 43186, 'latitude': 39.733904, 'name': '华昱家园', 'quanpin_url': 'c1111027375471', 'longitude': 116.335189, 'id': 1111027375471}, {'transPrice': 26775, 'latitude': 39.745228, 'name': '先锋公寓', 'quanpin_url': 'c1111027380702', 'longitude': 116.35258, 'id': 1111027380702}, {'transPrice': 39874, 'latitude': 39.737851, 'name': '黄村中里', 'quanpin_url': 'c1111027374914', 'longitude': 116.34933, 'id': 1111027374914}, {'transPrice': 40838, 'latitude': 39.741827, 'name': '蚂蚁工房', 'quanpin_url': 'c1111027378425', 'longitude': 116.347204, 'id': 1111027378425}, {'transPrice': 45253, 'latitude': 39.740211, 'name': '康宁家园', 'quanpin_url': 'c1111027377649', 'longitude': 116.336098, 'id': 1111027377649}, {'transPrice': 31047, 'latitude': 39.737265, 'name': '兴辰大厦', 'quanpin_url': 'c1111027380608', 'longitude': 116.347479, 'id': 1111027380608}, {'transPrice': 46333, 'latitude': 39.739943, 'name': '天锦苑', 'quanpin_url': 'c1111027379891', 'longitude': 116.335125, 'id': 1111027379891}, {'transPrice': 22831, 'latitude': 39.732719, 'name': '创兴公寓', 'quanpin_url': 'c1111027376620', 'longitude': 116.349475, 'id': 1111027376620}]","[0, 0, 0, 0, 0, 0, 0, 0, 0, 0, 0, 0]","[None, None, None, None, None, None, None, None, None, None, None, None]",611100611,黄村中,,,"['3月', '4月', '5月', '6月', '7月', '8月', '9月', '10月', '11月', '12月', '1月', '2月']","[136, 93, 100, 128, 113, 105, 126, 85, 112, 88, 91, 47]",39.740413495861,"[49298, 51437, 48973, 49375, 48101, 46501, 45757, 45048, 43256, 41910, 42233, 42370]","[52892, 59707, 51940, 54286, 52443, 49108, 44741, 49052, 47599, 44585, 45662, 45597]","[50174, 52175, 49973, 49376, 47312, 46264, 46334, 44863, 42650, 42338, 41405, 41666]","[46365, 48286, 46496, 48623, 47582, 46469, 45143, 43570, 42819, 39834, 42786, 42632]","[43085, 42653, 48834, 45248, 50253, 46507, 45395, 48109, 40377, 37100, 40093, 43788]",116.34264762407,"['03月', '04月', '05月', '06月', '07月', '08月', '09月', '10月', '11月', '12月', '01月', '02月']","[44970, 46040, 44627, 42845, 43380, 40791, 40687, 39374, 39793, 37997, 37931, 38371]","[47423, 48957, 47234, 45602, 45911, 44140, 43430, 41993, 42157, 41062, 41504, 41642]","[45982, 47452, 45755, 44220, 44681, 41986, 41796, 40678, 41001, 39146, 38770, 39416]","[43932, 45138, 43839, 42236, 42421, 39585, 39898, 38746, 39274, 37172, 37027, 37511]","[39601, 40901, 39341, 38155, 39356, 37207, 35351, 34332, 35259, 34699, 35012, 35571]","[3195, 1659, 1603, 1671, 1674, 1443, 1466, 1414, 1350, 1581, 1507, 591]",38371
5ab23160e43c7932fccb3a46,110000,北京,"[{'transPrice': 36261, 'latitude': 40.087052, 'name': '东方太阳城', 'quanpin_url': 'c1111027376853', 'longitude': 116.722221, 'id': 1111027376853}, {'transPrice': 20111, 'latitude': 40.134877, 'name': '东亚首航国际', 'quanpin_url': 'c1111047665744', 'longitude': 116.605239, 'id': 1111047665744}, {'transPrice': 31842, 'latitude': 40.037646, 'name': '馨港庄园三区', 'quanpin_url': 'c1111027380783', 'longitude': 116.675955, 'id': 1111027380783}, {'transPrice': 27421, 'latitude': 40.137845, 'name': '焦各庄街2号院', 'quanpin_url': 'c1111027378313', 'longitude': 116.625568, 'id': 1111027378313}, {'transPrice': 37671, 'latitude': 40.039656, 'name': '馨港庄园二区', 'quanpin_url': 'c1111027380782', 'longitude': 116.675236, 'id': 1111027380782}, {'transPrice': 44967, 'latitude': 40.162058, 'name': '顺鑫花语', 'quanpin_url': 'c1111027379605', 'longitude': 116.555729, 'id': 1111027379605}, {'transPrice': 31844, 'latitude': 40.219508, 'name': '龙湖好望山', 'quanpin_url': 'c1111046920919', 'longitude': 116.679737, 'id': 1111046920919}, {'transPrice': 27215, 'latitude': 40.213234, 'name': '水色时光五区', 'quanpin_url': 'c1111047005416', 'longitude': 116.732378, 'id': 1111047005416}, {'transPrice': 44630, 'latitude': 40.121904, 'name': '中建国际城', 'quanpin_url': 'c1111046969936', 'longitude': 116.642341, 'id': 1111046969936}, {'transPrice': 27649, 'latitude': 40.214246, 'name': '水色时光四区', 'quanpin_url': 'c1111046628123', 'longitude': 116.737492, 'id': 1111046628123}, {'transPrice': 29282, 'latitude': 40.136141, 'name': '华英园', 'quanpin_url': 'c1111027375522', 'longitude': 116.625955, 'id': 1111027375522}, {'transPrice': 23952, 'latitude': 40.155287, 'name': '浅山香邑', 'quanpin_url': 'c1111046310127', 'longitude': 116.945041, 'id': 1111046310127}, {'transPrice': 29100, 'latitude': 40.081257, 'name': '北京苏活二区', 'quanpin_url': 'c1111041156189', 'longitude': 116.637984, 'id': 1111041156189}, {'transPrice': 25384, 'latitude': 40.101955, 'name': '鹭峯国际', 'quanpin_url': 'c1111046913538', 'longitude': 116.66943, 'id': 1111046913538}, {'transPrice': 25894, 'latitude': 40.123157, 'name': '炫立方', 'quanpin_url': 'c1111063169387', 'longitude': 116.61891, 'id': 1111063169387}, {'transPrice': 34277, 'latitude': 40.083272, 'name': '北京苏活四区', 'quanpin_url': 'c1111041131414', 'longitude': 116.637122, 'id': 1111041131414}, {'transPrice': 33817, 'latitude': 40.165017, 'name': '顺鑫朗郡', 'quanpin_url': 'c1111027379612', 'longitude': 116.84067, 'id': 1111027379612}, {'transPrice': 32926, 'latitude': 40.227613, 'name': '下坡屯家园一区', 'quanpin_url': 'c1111045065078', 'longitude': 116.679497, 'id': 1111045065078}, {'transPrice': 25772, 'latitude': 40.166929, 'name': '顺鑫澜庭', 'quanpin_url': 'c1111027379613', 'longitude': 116.828681, 'id': 1111027379613}, {'transPrice': 37834, 'latitude': 40.165279, 'name': '丽喜花园', 'quanpin_url': 'c1111027378135', 'longitude': 116.557742, 'id': 1111027378135}, {'transPrice': 39109, 'latitude': 40.215956, 'name': '水色时光一区', 'quanpin_url': 'c1111046283152', 'longitude': 116.733252, 'id': 1111046283152}, {'transPrice': 32093, 'latitude': 40.138113, 'name': '彩俸北区', 'quanpin_url': 'c1111027376377', 'longitude': 116.707179, 'id': 1111027376377}, {'transPrice': 36716, 'latitude': 40.122278, 'name': '中海国际公馆', 'quanpin_url': 'c116963258470496', 'longitude': 116.646844, 'id': 116963258470496}, {'transPrice': 35494, 'latitude': 40.216111, 'name': '水色时光三区', 'quanpin_url': 'c1111046346808', 'longitude': 116.730696, 'id': 1111046346808}, {'transPrice': 15714, 'latitude': 40.161336, 'name': '双阳南区', 'quanpin_url': 'c1111027379674', 'longitude': 116.840824, 'id': 1111027379674}, {'transPrice': 39833, 'latitude': 40.157202, 'name': 'MOMA万万树', 'quanpin_url': 'c1111027378371', 'longitude': 116.548097, 'id': 1111027378371}, {'transPrice': 28088, 'latitude': 40.05246, 'name': '翼之城', 'quanpin_url': 'c1111045965578', 'longitude': 116.647031, 'id': 1111045965578}, {'transPrice': 27644, 'latitude': 40.121712, 'name': '蓝岸丽舍五期', 'quanpin_url': 'c1111047034013', 'longitude': 116.744023, 'id': 1111047034013}, {'transPrice': 26322, 'latitude': 40.164071, 'name': '阳洲鑫园', 'quanpin_url': 'c1111027382275', 'longitude': 116.837063, 'id': 1111027382275}, {'transPrice': 15743, 'latitude': 40.121561, 'name': '旭辉空港中心', 'quanpin_url': 'c1111046805732', 'longitude': 116.618482, 'id': 1111046805732}]","[0, 0, 0, 0, 0, 0, 0, 0, 0, 0, 0, 0]","[None, None, None, None, None, None, None, None, None, None, None, None]",611100404,顺义其它,,,"['3月', '4月', '5月', '6月', '7月', '8月', '9月', '10月', '11月', '12月', '1月', '2月']","[231, 149, 125, 138, 232, 276, 190, 176, 147, 123, 124, 107]",40.104412082479,"[40419, 41808, 40507, 40452, 37596, 37945, 37471, 36691, 34946, 33965, 35320, 34893]","[43023, 46956, 45953, 44435, 35564, 33295, 32923, 35783, 35035, 30776, 33820, 33542]","[39442, 40965, 39668, 39820, 37201, 39242, 37252, 37323, 35004, 34678, 34839, 36261]","[39912, 41053, 40548, 39286, 38162, 38229, 38059, 36023, 34293, 33170, 32771, 34694]","[45476, 44447, 40517, 45351, 43010, 37079, 36925, 36204, 37748, 36964, 46115, 33499]",116.65565367483,"['03月', '04月', '05月', '06月', '07月', '08月', '09月', '10月', '11月', '12月', '01月', '02月']","[30404, 31479, 31266, 29393, 30142, 28760, 29535, 28707, 27551, 28608, 27757, 28338]","[33267, 34177, 33508, 31517, 32614, 31331, 31810, 31242, 30016, 31083, 29874, 30295]","[31496, 32607, 32239, 30243, 31114, 29413, 29688, 28247, 26697, 26932, 26306, 26865]","[32014, 33151, 32724, 30681, 31314, 29546, 30121, 28580, 26915, 28209, 27518, 28098]","[32881, 33906, 33905, 32092, 33098, 31711, 32546, 31119, 29979, 31944, 30646, 31207]","[5357, 2117, 2206, 1623, 1809, 1769, 2453, 1658, 1305, 1125, 1119, 597]",28338
5ab23160e43c7932fccb3a47,110000,北京,"[{'transPrice': 36224, 'latitude': 39.770511, 'name': '兴海园', 'quanpin_url': 'c1111027380884', 'longitude': 116.457814, 'id': 1111027380884}, {'transPrice': 31434, 'latitude': 39.632299, 'name': '富力丹麦小镇', 'quanpin_url': 'c1111027374277', 'longitude': 116.317097, 'id': 1111027374277}, {'transPrice': 34827, 'latitude': 39.721523, 'name': '金色漫香郡', 'quanpin_url': 'c1111027377360', 'longitude': 116.406687, 'id': 1111027377360}, {'transPrice': 31882, 'latitude': 39.761336, 'name': '福苑小区', 'quanpin_url': 'c1111027374435', 'longitude': 116.361705, 'id': 1111027374435}, {'transPrice': 37081, 'latitude': 39.770446, 'name': '玉璟园', 'quanpin_url': 'c1111027381822', 'longitude': 116.461577, 'id': 1111027381822}, {'transPrice': 40309, 'latitude': 39.787865, 'name': '德茂小区', 'quanpin_url': 'c1111027373789', 'longitude': 116.440103, 'id': 1111027373789}, {'transPrice': 32547, 'latitude': 39.63631, 'name': '富力童话时光', 'quanpin_url': 'c1111047250644', 'longitude': 116.320777, 'id': 1111047250644}, {'transPrice': 38187, 'latitude': 39.750492, 'name': '首座御园一期', 'quanpin_url': 'c1111027379741', 'longitude': 116.373526, 'id': 1111027379741}, {'transPrice': 58085, 'latitude': 39.760198, 'name': '金第万科金域东郡', 'quanpin_url': 'c1111047291137', 'longitude': 116.494794, 'id': 1111047291137}, {'transPrice': 57027, 'latitude': 39.757383, 'name': '亦庄金茂悦南区', 'quanpin_url': 'c1111062905081', 'longitude': 116.493572, 'id': 1111062905081}, {'transPrice': 37388, 'latitude': 39.788087, 'name': '上林苑', 'quanpin_url': 'c1111027379468', 'longitude': 116.443144, 'id': 1111027379468}, {'transPrice': 32280, 'latitude': 39.62703, 'name': '龙熙顺景', 'quanpin_url': 'c1111027378149', 'longitude': 116.319699, 'id': 1111027378149}, {'transPrice': 25787, 'latitude': 39.676405, 'name': '一品嘉园', 'quanpin_url': 'c1111027381935', 'longitude': 116.423115, 'id': 1111027381935}, {'transPrice': 39460, 'latitude': 39.783232, 'name': '德茂佳苑', 'quanpin_url': 'c1111027373788', 'longitude': 116.445417, 'id': 1111027373788}, {'transPrice': 37819, 'latitude': 39.747088, 'name': '团河苑', 'quanpin_url': 'c1111027379847', 'longitude': 116.378225, 'id': 1111027379847}, {'transPrice': 36899, 'latitude': 39.677479, 'name': '天堂河', 'quanpin_url': 'c1111027380022', 'longitude': 116.334049, 'id': 1111027380022}, {'transPrice': 23556, 'latitude': 39.62674, 'name': '隆盛园', 'quanpin_url': 'c1111027378083', 'longitude': 116.328202, 'id': 1111027378083}, {'transPrice': 34217, 'latitude': 39.768464, 'name': '三槐家园', 'quanpin_url': 'c1111040862998', 'longitude': 116.45908, 'id': 1111040862998}, {'transPrice': 43655, 'latitude': 39.765674, 'name': '鹿海园三里', 'quanpin_url': 'c1111027377896', 'longitude': 116.506305, 'id': 1111027377896}, {'transPrice': 56965, 'latitude': 39.764599, 'name': '北京城建海梓府', 'quanpin_url': 'c1111062674887', 'longitude': 116.488856, 'id': 1111062674887}, {'transPrice': 28967, 'latitude': 39.637999, 'name': '御园小区', 'quanpin_url': 'c1111043685119', 'longitude': 116.326915, 'id': 1111043685119}, {'transPrice': 35578, 'latitude': 39.715566, 'name': '格林云墅', 'quanpin_url': 'c1111063222181', 'longitude': 116.410395, 'id': 1111063222181}, {'transPrice': 39502, 'latitude': 39.768197, 'name': '鹿海园一里', 'quanpin_url': 'c1111027377894', 'longitude': 116.507383, 'id': 1111027377894}, {'transPrice': 35562, 'latitude': 39.712166, 'name': '首地浣溪谷', 'quanpin_url': 'c1111047806021', 'longitude': 116.4104, 'id': 1111047806021}, {'transPrice': 34957, 'latitude': 39.717263, 'name': '蓝桥驿苑', 'quanpin_url': 'c1111047383657', 'longitude': 116.411797, 'id': 1111047383657}, {'transPrice': 30838, 'latitude': 39.637547, 'name': '众美城', 'quanpin_url': 'c1111062178373', 'longitude': 116.329235, 'id': 1111062178373}, {'transPrice': 28174, 'latitude': 39.620165, 'name': '独墅逸致', 'quanpin_url': 'c1111027373911', 'longitude': 116.336381, 'id': 1111027373911}, {'transPrice': 29878, 'latitude': 39.656133, 'name': '阳光波尔多小镇', 'quanpin_url': 'c1111027381649', 'longitude': 116.642188, 'id': 1111027381649}, {'transPrice': 36613, 'latitude': 39.756681, 'name': '198别墅区', 'quanpin_url': 'c1111027375556', 'longitude': 116.38704, 'id': 1111027375556}, {'transPrice': 32939, 'latitude': 39.768509, 'name': '三槐家园东区', 'quanpin_url': 'c1111040862999', 'longitude': 116.461174, 'id': 1111040862999}]","[0, 0, 0, 0, 0, 0, 0, 0, 0, 0, 0, 0]","[None, None, None, None, None, None, None, None, None, None, None, None]",611100395,大兴其它,,,"['3月', '4月', '5月', '6月', '7月', '8月', '9月', '10月', '11月', '12月', '1月', '2月']","[160, 110, 105, 159, 125, 160, 133, 129, 140, 150, 128, 112]",39.660097378976,"[44184, 46474, 45039, 43065, 44131, 42019, 42476, 42340, 42785, 43468, 42979, 43056]","[46975, 51946, 46313, 47564, 40924, 45711, 46788, 44924, 43649, 44134, 45755, 44757]","[43644, 45492, 44299, 42086, 43552, 39353, 39331, 39882, 40799, 40885, 40791, 40269]","[44552, 46987, 47191, 43122, 48516, 46253, 47060, 46202, 45545, 46430, 46111, 47702]","[40685, 42875, 44228, 41305, 44340, 41652, 42039, 46529, 41563, 45535, 46599, 47307]",116.3549774537,"['03月', '04月', '05月', '06月', '07月', '08月', '09月', '10月', '11月', '12月', '01月', '02月']","[36253, 37170, 36019, 35487, 35537, 33387, 33939, 31988, 34081, 31984, 33622, 32324]","[39364, 40339, 39133, 38319, 38006, 35795, 35857, 34114, 35505, 33307, 35027, 33544]","[35075, 36356, 35142, 34294, 34038, 32017, 32536, 30702, 32634, 30633, 32141, 30981]","[35559, 36326, 35160, 34641, 35270, 32906, 33800, 32167, 33329, 31436, 33411, 32478]","[38994, 40117, 38168, 37384, 37407, 35615, 35203, 33125, 35444, 33167, 35808, 34614]","[3082, 1803, 1571, 1776, 2080, 1725, 1667, 1610, 2019, 2222, 1943, 889]",32324
5ab23160e43c7932fccb3a48,110000,北京,"[{'transPrice': 32322, 'latitude': 39.768357, 'name': '泰中花园', 'quanpin_url': 'c1111027380139', 'longitude': 116.353561, 'id': 1111027380139}]",[0],[None],1100002094,大兴开发区,,,['2月'],[2],39.76355,[37108],[None],[38844],[35371],[None],116.355533,['02月'],[32322],[35429],[35511],[30802],[22542],[32],32322
5ab23161e43c7932fccb3a49,110000,北京,"[{'transPrice': 50300, 'latitude': 39.770444, 'name': '新里.西斯莱公馆', 'quanpin_url': 'c1111027381176', 'longitude': 116.344335, 'id': 1111027381176}, {'transPrice': 51365, 'latitude': 39.770087, 'name': '金地仰山', 'quanpin_url': 'c1111027377095', 'longitude': 116.318055, 'id': 1111027377095}, {'transPrice': 47948, 'latitude': 39.763334, 'name': '原生墅', 'quanpin_url': 'c1111027382044', 'longitude': 116.333726, 'id': 1111027382044}, {'transPrice': 58429, 'latitude': 39.770904, 'name': '华润公元九里', 'quanpin_url': 'c1111043031661', 'longitude': 116.325987, 'id': 1111043031661}, {'transPrice': 44346, 'latitude': 39.770944, 'name': '兴涛社区', 'quanpin_url': 'c1111027381246', 'longitude': 116.331827, 'id': 1111027381246}, {'transPrice': 50430, 'latitude': 39.767638, 'name': '翡翠城五期', 'quanpin_url': 'c1111027374140', 'longitude': 116.325206, 'id': 1111027374140}, {'transPrice': 39872, 'latitude': 39.769022, 'name': '康盛园', 'quanpin_url': 'c1111027377660', 'longitude': 116.320594, 'id': 1111027377660}, {'transPrice': 56562, 'latitude': 39.772877, 'name': '旭辉御府', 'quanpin_url': 'c1111043326838', 'longitude': 116.322438, 'id': 1111043326838}, {'transPrice': 52197, 'latitude': 39.771886, 'name': '云河墅', 'quanpin_url': 'c1111046250372', 'longitude': 116.335961, 'id': 1111046250372}, {'transPrice': 41890, 'latitude': 39.763814, 'name': '骏城', 'quanpin_url': 'c1111027376998', 'longitude': 116.323868, 'id': 1111027376998}, {'transPrice': 31309, 'latitude': 39.770832, 'name': '绿地中央广场', 'quanpin_url': 'c1111046594434', 'longitude': 116.339799, 'id': 1111046594434}, {'transPrice': 55875, 'latitude': 39.777309, 'name': '翡翠城三期', 'quanpin_url': 'c1111027374139', 'longitude': 116.32146, 'id': 1111027374139}, {'transPrice': 68184, 'latitude': 39.773896, 'name': '兴创屹墅', 'quanpin_url': 'c1111046896496', 'longitude': 116.343751, 'id': 1111046896496}, {'transPrice': 66021, 'latitude': 39.766366, 'name': '旭辉紫郡', 'quanpin_url': 'c1111027380898', 'longitude': 116.319424, 'id': 1111027380898}, {'transPrice': 38020, 'latitude': 39.767129, 'name': '康颐园', 'quanpin_url': 'c1111027377703', 'longitude': 116.336744, 'id': 1111027377703}, {'transPrice': 40232, 'latitude': 39.76873, 'name': '可可家园', 'quanpin_url': 'c1111027377638', 'longitude': 116.318858, 'id': 1111027377638}, {'transPrice': 17189, 'latitude': 39.76667, 'name': '康顺园', 'quanpin_url': 'c1111027377659', 'longitude': 116.346319, 'id': 1111027377659}, {'transPrice': 37272, 'latitude': 39.767904, 'name': '康达园', 'quanpin_url': 'c1111027377608', 'longitude': 116.339333, 'id': 1111027377608}, {'transPrice': None, 'latitude': 39.765646, 'name': '原乡假日', 'quanpin_url': 'c1111040863029', 'longitude': 116.332821, 'id': 1111040863029}, {'transPrice': None, 'latitude': 39.763941, 'name': '康庄路9号院', 'quanpin_url': 'c1111043193162', 'longitude': 116.343492, 'id': 1111043193162}, {'transPrice': None, 'latitude': 39.762744, 'name': '康庄路37号院', 'quanpin_url': 'c1110342695447938', 'longitude': 116.32477, 'id': 1110342695447938}, {'transPrice': None, 'latitude': 39.771452, 'name': '绿地兴贸中心', 'quanpin_url': 'c1114574113796385', 'longitude': 116.340677, 'id': 1114574113796385}, {'transPrice': None, 'latitude': 39.765286149019, 'name': '核心区组团小区', 'quanpin_url': 'c1111027375392', 'longitude': 116.33706092834, 'id': 1111027375392}]",[0],[None],1100002093,高米店南,,,['2月'],[43],39.769096,[58108],[52380],[50328],[58722],[64697],116.331674,['02月'],[46743],[44849],[48702],[46739],[48413],[744],46743
5ab23162e43c7932fccb3a4a,110000,北京,"[{'transPrice': 36191, 'latitude': 39.942927, 'name': '西潞苑小区', 'quanpin_url': 'c1111027381046', 'longitude': 116.664848, 'id': 1111027381046}, {'transPrice': 44318, 'latitude': 39.931905, 'name': '天赐良园东三期', 'quanpin_url': 'c1111027379773', 'longitude': 116.648255, 'id': 1111027379773}, {'transPrice': 42489, 'latitude': 39.956868, 'name': '金地格林格林', 'quanpin_url': 'c1111055312856', 'longitude': 116.661329, 'id': 1111055312856}, {'transPrice': 39466, 'latitude': 39.934305, 'name': '天赐良园二期', 'quanpin_url': 'c1111027379774', 'longitude': 116.650294, 'id': 1111027379774}, {'transPrice': 37465, 'latitude': 39.951388, 'name': '翠福园', 'quanpin_url': 'c1111027376393', 'longitude': 116.659546, 'id': 1111027376393}, {'transPrice': 42003, 'latitude': 39.92439, 'name': '财富东方', 'quanpin_url': 'c1111027376378', 'longitude': 116.658082, 'id': 1111027376378}, {'transPrice': 42705, 'latitude': 39.932185, 'name': '富河园', 'quanpin_url': 'c1111027374247', 'longitude': 116.661047, 'id': 1111027374247}, {'transPrice': 40738, 'latitude': 39.92483, 'name': '朝通嘉园', 'quanpin_url': 'c1111027376572', 'longitude': 116.627629, 'id': 1111027376572}, {'transPrice': 41846, 'latitude': 39.932673, 'name': '天赐良园一期', 'quanpin_url': 'c1111027379777', 'longitude': 116.644167, 'id': 1111027379777}, {'transPrice': 42168, 'latitude': 39.940239, 'name': '8哩岛', 'quanpin_url': 'c1111027375565', 'longitude': 116.647632, 'id': 1111027375565}, {'transPrice': 45497, 'latitude': 39.932375, 'name': '天赐良园西三期', 'quanpin_url': 'c1111027379776', 'longitude': 116.642721, 'id': 1111027379776}, {'transPrice': 41373, 'latitude': 39.93066, 'name': '碧水明珠', 'quanpin_url': 'c1111027376091', 'longitude': 116.661469, 'id': 1111027376091}, {'transPrice': 37205, 'latitude': 39.925985, 'name': '东阁雅舍', 'quanpin_url': 'c1111027376891', 'longitude': 116.658388, 'id': 1111027376891}, {'transPrice': 41736, 'latitude': 39.933626, 'name': '天赐良园二期半', 'quanpin_url': 'c1111027379775', 'longitude': 116.647506, 'id': 1111027379775}, {'transPrice': 40062, 'latitude': 39.921309, 'name': '馨通家园', 'quanpin_url': 'c1111027381234', 'longitude': 116.652755, 'id': 1111027381234}, {'transPrice': 38787, 'latitude': 39.920731, 'name': '通惠小区', 'quanpin_url': 'c1111027379844', 'longitude': 116.64994, 'id': 1111027379844}, {'transPrice': 51805, 'latitude': 39.938807, 'name': '物资学院家属院', 'quanpin_url': 'c1111027380546', 'longitude': 116.643305, 'id': 1111027380546}, {'transPrice': 38754, 'latitude': 39.933655, 'name': '华诚花园', 'quanpin_url': 'c1111027374902', 'longitude': 116.646377, 'id': 1111027374902}, {'transPrice': 36629, 'latitude': 39.923391, 'name': '永顺西里', 'quanpin_url': 'c1111027382053', 'longitude': 116.652665, 'id': 1111027382053}, {'transPrice': 42275, 'latitude': 39.929477, 'name': '结研所家属院', 'quanpin_url': 'c1111027377538', 'longitude': 116.655118, 'id': 1111027377538}, {'transPrice': 29333, 'latitude': 39.941718, 'name': '榆景苑', 'quanpin_url': 'c1111027381828', 'longitude': 116.643287, 'id': 1111027381828}, {'transPrice': 50362, 'latitude': 39.92612, 'name': '劳动局家属院', 'quanpin_url': 'c1111027377792', 'longitude': 116.660938, 'id': 1111027377792}, {'transPrice': 25185, 'latitude': 39.935169, 'name': '新建村', 'quanpin_url': 'c1112974723182459', 'longitude': 116.653375, 'id': 1112974723182459}, {'transPrice': 34065, 'latitude': 39.921015, 'name': '民政局家属楼', 'quanpin_url': 'c1111027378451', 'longitude': 116.649887, 'id': 1111027378451}, {'transPrice': 48485, 'latitude': 39.925574, 'name': '万福家园', 'quanpin_url': 'c1111027380218', 'longitude': 116.658514, 'id': 1111027380218}, {'transPrice': 36445, 'latitude': 39.922465, 'name': '通惠北路12号院', 'quanpin_url': 'c1111041183378', 'longitude': 116.650083, 'id': 1111041183378}, {'transPrice': 43829, 'latitude': 39.92703, 'name': '财贸宿舍', 'quanpin_url': 'c1111041805401', 'longitude': 116.656671, 'id': 1111041805401}, {'transPrice': 28302, 'latitude': 39.948979, 'name': '金融街园中园', 'quanpin_url': 'c1111043571546', 'longitude': 116.643836, 'id': 1111043571546}, {'transPrice': 40071, 'latitude': 39.925611, 'name': '永顺北街', 'quanpin_url': 'c1111027382006', 'longitude': 116.649764, 'id': 1111027382006}, {'transPrice': 39118, 'latitude': 39.927486, 'name': '后窑小区', 'quanpin_url': 'c1111027375516', 'longitude': 116.659025, 'id': 1111027375516}]","[0, 0, 0, 0, 0, 0, 0, 0, 0, 0, 0, 0]","[None, None, None, None, None, None, None, None, None, None, None, None]",611100366,北关,,,"['3月', '4月', '5月', '6月', '7月', '8月', '9月', '10月', '11月', '12月', '1月', '2月']","[49, 43, 44, 37, 32, 59, 57, 37, 57, 49, 44, 56]",39.935713873108,"[51548, 54068, 51778, 50018, 48948, 46583, 45816, 45957, 45096, 44545, 43223, 44808]","[54155, 62232, 60336, 55589, 52828, 48551, 50074, 52102, 49635, 47108, 46027, 47484]","[53005, 53521, 52117, 49381, 48836, 46548, 45062, 45191, 43936, 43591, 43910, 44025]","[50063, 51731, 49654, 47952, 46394, 46474, 45536, 41544, 43752, 45864, 40077, 44129]","[42374, 44426, 51651, 40724, 42833, 46160, 45462, 41080, 39693, 34415, 36112, 37975]",116.64763598029,"['03月', '04月', '05月', '06月', '07月', '08月', '09月', '10月', '11月', '12月', '01月', '02月']","[47169, 48062, 46477, 44750, 41596, 42321, 42381, 42620, 41192, 39557, 40460, 40571]","[53467, 55027, 51853, 49389, 45754, 46896, 47411, 47129, 45815, 44153, 45966, 45959]","[49259, 50441, 49065, 47513, 44531, 44254, 43818, 44338, 42844, 41019, 42174, 41667]","[46490, 47668, 46847, 45226, 42336, 41978, 41950, 42466, 40795, 38616, 39691, 39524]","[35683, 37606, 36470, 35573, 34171, 33570, 34958, 34585, 33527, 31972, 33216, 32654]","[1832, 1062, 914, 900, 1169, 997, 1304, 1267, 1292, 1550, 1248, 693]",40571
5ab23162e43c7932fccb3a4b,110000,北京,"[{'transPrice': 32686, 'latitude': 39.88191, 'name': '大方居', 'quanpin_url': 'c1111027376834', 'longitude': 116.63734, 'id': 1111027376834}, {'transPrice': 45085, 'latitude': 39.889841, 'name': '靓景明居', 'quanpin_url': 'c1111027377211', 'longitude': 116.643924, 'id': 1111027377211}, {'transPrice': 45028, 'latitude': 39.8932, 'name': '蓝调沙龙东区', 'quanpin_url': 'c1111027377800', 'longitude': 116.658104, 'id': 1111027377800}, {'transPrice': 56138, 'latitude': 39.894058, 'name': 'K2玉蘭湾', 'quanpin_url': 'c1111046096422', 'longitude': 116.665685, 'id': 1111046096422}, {'transPrice': 59490, 'latitude': 39.890866, 'name': '龙湖蔚澜香醍', 'quanpin_url': 'c1111040862985', 'longitude': 116.655423, 'id': 1111040862985}, {'transPrice': 42621, 'latitude': 39.880595, 'name': '旗舰凯旋二三期', 'quanpin_url': 'c1111027378838', 'longitude': 116.650069, 'id': 1111027378838}, {'transPrice': 46322, 'latitude': 39.892675, 'name': '格瑞雅居', 'quanpin_url': 'c1111027374699', 'longitude': 116.65133, 'id': 1111027374699}, {'transPrice': 41305, 'latitude': 39.883322, 'name': '旗舰凯旋一期', 'quanpin_url': 'c1111027378839', 'longitude': 116.65244, 'id': 1111027378839}, {'transPrice': 43880, 'latitude': 39.876941, 'name': '阿尔法社区二期', 'quanpin_url': 'c1111027375585', 'longitude': 116.65235, 'id': 1111027375585}, {'transPrice': 56489, 'latitude': 39.882159, 'name': '龙湖花盛香醍', 'quanpin_url': 'c1111027377866', 'longitude': 116.640214, 'id': 1111027377866}, {'transPrice': 39741, 'latitude': 39.883931, 'name': '龙鼎园', 'quanpin_url': 'c1111027377804', 'longitude': 116.655566, 'id': 1111027377804}, {'transPrice': 45563, 'latitude': 39.893938, 'name': '瑞都国际南区', 'quanpin_url': 'c1111027378992', 'longitude': 116.662088, 'id': 1111027378992}, {'transPrice': 46433, 'latitude': 39.876872, 'name': '阿尔法社区三期', 'quanpin_url': 'c1111027375586', 'longitude': 116.655458, 'id': 1111027375586}, {'transPrice': 46853, 'latitude': 39.893658, 'name': '蓝调沙龙西区', 'quanpin_url': 'c1111027377801', 'longitude': 116.655952, 'id': 1111027377801}, {'transPrice': 41907, 'latitude': 39.89499, 'name': '瑞都国际北区', 'quanpin_url': 'c1111027378991', 'longitude': 116.662375, 'id': 1111027378991}, {'transPrice': 40552, 'latitude': 39.882813, 'name': '新翠景园', 'quanpin_url': 'c1111027380624', 'longitude': 116.661683, 'id': 1111027380624}, {'transPrice': 48048, 'latitude': 39.879142, 'name': '阿尔法社区', 'quanpin_url': 'c1111027375584', 'longitude': 116.652458, 'id': 1111027375584}, {'transPrice': 35743, 'latitude': 39.8809, 'name': '中泽家园', 'quanpin_url': 'c1111027382781', 'longitude': 116.64484, 'id': 1111027382781}, {'transPrice': 40066, 'latitude': 39.878713, 'name': '中泽雅园', 'quanpin_url': 'c1111027382795', 'longitude': 116.643044, 'id': 1111027382795}, {'transPrice': 42676, 'latitude': 39.894471, 'name': '怡乐北街', 'quanpin_url': 'c1111027381845', 'longitude': 116.651623, 'id': 1111027381845}, {'transPrice': 41985, 'latitude': 39.879581, 'name': '京洲世家', 'quanpin_url': 'c1111027377574', 'longitude': 116.640066, 'id': 1111027377574}, {'transPrice': 54984, 'latitude': 39.894862, 'name': '金成府', 'quanpin_url': 'c1111047035721', 'longitude': 116.666914, 'id': 1111047035721}, {'transPrice': 31757, 'latitude': 39.883682, 'name': '世爵源墅', 'quanpin_url': 'c1111027379381', 'longitude': 116.646457, 'id': 1111027379381}, {'transPrice': 44647, 'latitude': 39.892139, 'name': '翠屏里', 'quanpin_url': 'c1111027376513', 'longitude': 116.655189, 'id': 1111027376513}, {'transPrice': 37276, 'latitude': 39.883748, 'name': '通景园', 'quanpin_url': 'c1111041123243', 'longitude': 116.64963, 'id': 1111041123243}, {'transPrice': 39011, 'latitude': 39.889661, 'name': '翠屏南里', 'quanpin_url': 'c1111027376514', 'longitude': 116.65474, 'id': 1111027376514}, {'transPrice': 42188, 'latitude': 39.887378, 'name': '冷冻机械厂宿舍', 'quanpin_url': 'c1111027377793', 'longitude': 116.64202, 'id': 1111027377793}, {'transPrice': 42319, 'latitude': 39.893675, 'name': '改水办', 'quanpin_url': 'c1111027374700', 'longitude': 116.653464, 'id': 1111027374700}, {'transPrice': 22201, 'latitude': 39.896119, 'name': '瑞都国际写字楼', 'quanpin_url': 'c1111027378993', 'longitude': 116.663334, 'id': 1111027378993}, {'transPrice': 49156, 'latitude': 39.89629, 'name': '石油家属院', 'quanpin_url': 'c1111027379662', 'longitude': 116.666615, 'id': 1111027379662}]","[0, 0, 0, 0, 0, 0, 0, 0, 0, 0, 0, 0]","[None, None, None, None, None, None, None, None, None, None, None, None]",611100531,九棵树(家乐福),,,"['3月', '4月', '5月', '6月', '7月', '8月', '9月', '10月', '11月', '12月', '1月', '2月']","[117, 101, 95, 64, 64, 79, 93, 82, 77, 82, 70, 69]",39.880798748983,"[57016, 56406, 56140, 53794, 52175, 52980, 49632, 48861, 48671, 47691, 48565, 48080]","[60243, 63328, 57491, 55156, 51902, 52585, 47786, 50337, 47466, 50906, 51047, 50533]","[51822, 53802, 53725, 50763, 48290, 47876, 47105, 45663, 44316, 44312, 45038, 46341]","[57822, 56703, 55481, 55921, 56340, 58089, 51952, 51128, 51568, 47084, 50970, 45866]","[79373, 59999, 56833, 64356, 61384, 53863, 50594, 64489, 59691, 57996, 59957, 64264]",116.65152404813,"['03月', '04月', '05月', '06月', '07月', '08月', '09月', '10月', '11月', '12月', '01月', '02月']","[53200, 54024, 52908, 49018, 47242, 47074, 45782, 44768, 43624, 42748, 42813, 43405]","[55503, 56273, 54792, 51108, 49460, 50136, 48400, 46542, 45676, 45013, 45236, 44635]","[53706, 54785, 53140, 49489, 47637, 47110, 45990, 44837, 43656, 43234, 43412, 43816]","[52276, 52797, 50977, 47703, 45744, 46451, 45552, 45168, 44013, 43970, 43570, 44136]","[53961, 54843, 53315, 50239, 49866, 49037, 48081, 47534, 45368, 43043, 43639, 44494]","[3988, 2645, 2602, 2375, 2578, 2225, 2567, 2242, 2166, 2423, 2214, 1078]",43405
5ab23163e43c7932fccb3a4c,110000,北京,"[{'transPrice': 56324, 'latitude': 39.931339, 'name': 'K2清水湾', 'quanpin_url': 'c1111043481761', 'longitude': 116.689177, 'id': 1111043481761}, {'transPrice': 42105, 'latitude': 39.944018, 'name': '珠江拉维小镇', 'quanpin_url': 'c1111027382527', 'longitude': 116.693646, 'id': 1111027382527}, {'transPrice': 40095, 'latitude': 39.934643, 'name': '华龙小区', 'quanpin_url': 'c1111027375151', 'longitude': 116.695201, 'id': 1111027375151}, {'transPrice': 44575, 'latitude': 39.933473, 'name': '澜花语岸', 'quanpin_url': 'c1111027377893', 'longitude': 116.678048, 'id': 1111027377893}, {'transPrice': 31537, 'latitude': 39.95821, 'name': '四海公寓', 'quanpin_url': 'c1111027379259', 'longitude': 116.703713, 'id': 1111027379259}, {'transPrice': 46616, 'latitude': 39.937078, 'name': '珠江国际城八区', 'quanpin_url': 'c1111027382508', 'longitude': 116.685959, 'id': 1111027382508}, {'transPrice': 43583, 'latitude': 39.938638, 'name': '新潮嘉园一期', 'quanpin_url': 'c1111027380628', 'longitude': 116.69986, 'id': 1111027380628}, {'transPrice': 41540, 'latitude': 39.940934, 'name': '新潮嘉园三期', 'quanpin_url': 'c1111027380627', 'longitude': 116.706256, 'id': 1111027380627}, {'transPrice': 38139, 'latitude': 39.939938, 'name': '新潮嘉园二期', 'quanpin_url': 'c1111027380626', 'longitude': 116.703237, 'id': 1111027380626}, {'transPrice': 39435, 'latitude': 39.942109, 'name': '自然佳境', 'quanpin_url': 'c1111027382618', 'longitude': 116.698943, 'id': 1111027382618}, {'transPrice': 46258, 'latitude': 39.934532, 'name': '古韵新居', 'quanpin_url': 'c1111027374827', 'longitude': 116.681628, 'id': 1111027374827}, {'transPrice': 34917, 'latitude': 39.945754, 'name': '上潞园', 'quanpin_url': 'c1111027379467', 'longitude': 116.692888, 'id': 1111027379467}, {'transPrice': 55366, 'latitude': 39.948827, 'name': '中建红杉溪谷', 'quanpin_url': 'c1111047591799', 'longitude': 116.706425, 'id': 1111047591799}, {'transPrice': 34272, 'latitude': 39.94297, 'name': '东潞苑', 'quanpin_url': 'c1111027373775', 'longitude': 116.685452, 'id': 1111027373775}, {'transPrice': 49129, 'latitude': 39.937867, 'name': '珠江国际城一区', 'quanpin_url': 'c1111027382509', 'longitude': 116.692337, 'id': 1111027382509}, {'transPrice': 30619, 'latitude': 39.950618, 'name': '疃里新村', 'quanpin_url': 'c1111027379912', 'longitude': 116.698796, 'id': 1111027379912}, {'transPrice': 51918, 'latitude': 39.944456, 'name': '尚东庭', 'quanpin_url': 'c1111027379181', 'longitude': 116.685781, 'id': 1111027379181}, {'transPrice': 40807, 'latitude': 39.936332, 'name': '潞潮佳苑', 'quanpin_url': 'c1111027377767', 'longitude': 116.684011, 'id': 1111027377767}, {'transPrice': 37502, 'latitude': 39.938839, 'name': '珠江丽景家园', 'quanpin_url': 'c1111046546797', 'longitude': 116.690636, 'id': 1111046546797}, {'transPrice': 35361, 'latitude': 39.94027, 'name': '小潞邑', 'quanpin_url': 'c1111027381031', 'longitude': 116.699554, 'id': 1111027381031}, {'transPrice': 49047, 'latitude': 39.940039, 'name': '东亚逸品阁', 'quanpin_url': 'c1111047633317', 'longitude': 116.696179, 'id': 1111047633317}, {'transPrice': 37251, 'latitude': 39.936884, 'name': '至善家园', 'quanpin_url': 'c1111027382637', 'longitude': 116.680468, 'id': 1111027382637}, {'transPrice': 35236, 'latitude': 39.941289, 'name': '枫露花园', 'quanpin_url': 'c1111027374284', 'longitude': 116.682353, 'id': 1111027374284}, {'transPrice': 45306, 'latitude': 39.939665, 'name': '珠江东都国际', 'quanpin_url': 'c1111063604872', 'longitude': 116.696583, 'id': 1111063604872}, {'transPrice': 35165, 'latitude': 39.967614, 'name': '天润别墅', 'quanpin_url': 'c1111027379984', 'longitude': 116.703847, 'id': 1111027379984}, {'transPrice': 50303, 'latitude': 39.93232, 'name': '运通花园', 'quanpin_url': 'c1111027382082', 'longitude': 116.680828, 'id': 1111027382082}, {'transPrice': 37782, 'latitude': 39.937087, 'name': '新华联培训中心家属楼', 'quanpin_url': 'c1111027380849', 'longitude': 116.677896, 'id': 1111027380849}, {'transPrice': 42206, 'latitude': 39.94142, 'name': '枫露皇苑', 'quanpin_url': 'c1111027374285', 'longitude': 116.671872, 'id': 1111027374285}, {'transPrice': 47947, 'latitude': 39.964265, 'name': '丛林庄别墅', 'quanpin_url': 'c1111027376485', 'longitude': 116.706648, 'id': 1111027376485}, {'transPrice': 43981, 'latitude': 39.933719, 'name': '潞苑南大街88号院', 'quanpin_url': 'c1111027378196', 'longitude': 116.679962, 'id': 1111027378196}]","[0, 0, 0, 0, 0, 0, 0, 0, 0, 0, 0, 0]","[None, None, None, None, None, None, None, None, None, None, None, None]",611100365,潞苑,,,"['3月', '4月', '5月', '6月', '7月', '8月', '9月', '10月', '11月', '12月', '1月', '2月']","[110, 131, 85, 88, 62, 64, 88, 70, 88, 73, 80, 40]",39.944836998733,"[54644, 55220, 54207, 52933, 54243, 52744, 51879, 48433, 48370, 48563, 48979, 46802]","[59162, 60367, 60329, 60182, 54856, 54945, 51504, 49044, 49894, 51613, 49167, 52885]","[56637, 55872, 55212, 54639, 53150, 51947, 49107, 47189, 47571, 45025, 47243, 47244]","[50590, 52064, 48709, 48517, 52411, 46641, 48372, 45028, 41157, 46681, 49001, 41327]","[49754, 53877, 54445, 58068, 59361, 53876, 53782, 62540, 61196, 58766, 54866, 54462]",116.69189840052,"['03月', '04月', '05月', '06月', '07月', '08月', '09月', '10月', '11月', '12月', '01月', '02月']","[48431, 49314, 48011, 45423, 43165, 42629, 42132, 42163, 41939, 41231, 41967, 42074]","[51090, 52546, 50764, 48270, 45770, 46851, 44793, 43780, 43325, 42252, 43649, 43523]","[49557, 50150, 48479, 45851, 43561, 43625, 42015, 42525, 42179, 40913, 41263, 41153]","[49778, 50400, 48571, 47752, 45814, 45571, 44253, 45124, 45048, 43409, 43934, 43805]","[42403, 43886, 43067, 41983, 39743, 40036, 40398, 40283, 41294, 41255, 41772, 41800]","[3883, 2216, 1469, 1451, 1852, 1447, 1672, 1359, 1202, 1414, 1358, 544]",42074
5ab23163e43c7932fccb3a4d,110000,北京,"[{'transPrice': 66316, 'latitude': 39.906426, 'name': '远洋山水', 'quanpin_url': 'c1111027382209', 'longitude': 116.247008, 'id': 1111027382209}, {'transPrice': 79474, 'latitude': 39.906687, 'name': '远洋沁山水', 'quanpin_url': 'c1111027382206', 'longitude': 116.258665, 'id': 1111027382206}, {'transPrice': 48983, 'latitude': 39.906502, 'name': '永乐东区', 'quanpin_url': 'c1111027381852', 'longitude': 116.239132, 'id': 1111027381852}, {'transPrice': 62519, 'latitude': 39.896656, 'name': '京汉旭城', 'quanpin_url': 'c1111027377174', 'longitude': 116.233381, 'id': 1111027377174}, {'transPrice': 50901, 'latitude': 39.906862, 'name': '永乐西区', 'quanpin_url': 'c1111027381888', 'longitude': 116.233785, 'id': 1111027381888}, {'transPrice': 48064, 'latitude': 39.905466, 'name': '七星园', 'quanpin_url': 'c1111027378940', 'longitude': 116.221549, 'id': 1111027378940}, {'transPrice': 50020, 'latitude': 39.905003, 'name': '五芳园', 'quanpin_url': 'c1111027380227', 'longitude': 116.233846, 'id': 1111027380227}, {'transPrice': 52185, 'latitude': 39.907108, 'name': '依翠园', 'quanpin_url': 'c1111027381546', 'longitude': 116.22664, 'id': 1111027381546}, {'transPrice': 46165, 'latitude': 39.904248, 'name': '六合园', 'quanpin_url': 'c1111027377889', 'longitude': 116.224768, 'id': 1111027377889}, {'transPrice': 47302, 'latitude': 39.899968, 'name': '重聚园', 'quanpin_url': 'c1111027382550', 'longitude': 116.236106, 'id': 1111027382550}, {'transPrice': 58706, 'latitude': 39.905578, 'name': '诗景长安', 'quanpin_url': 'c1111027379320', 'longitude': 116.226331, 'id': 1111027379320}, {'transPrice': 53841, 'latitude': 39.912208, 'name': '碣石坪', 'quanpin_url': 'c1111027377365', 'longitude': 116.221728, 'id': 1111027377365}, {'transPrice': 51344, 'latitude': 39.898779, 'name': '聚兴园', 'quanpin_url': 'c1111027377481', 'longitude': 116.229975, 'id': 1111027377481}, {'transPrice': 45295, 'latitude': 39.907678, 'name': '双锦园', 'quanpin_url': 'c1111027379379', 'longitude': 116.228639, 'id': 1111027379379}, {'transPrice': 47096, 'latitude': 39.8972, 'name': '重兴园', 'quanpin_url': 'c1111027382723', 'longitude': 116.233915, 'id': 1111027382723}, {'transPrice': 46246, 'latitude': 39.897509, 'name': '重兴嘉园', 'quanpin_url': 'c1111027382704', 'longitude': 116.236947, 'id': 1111027382704}, {'transPrice': 46317, 'latitude': 39.898977, 'name': '北重西厂', 'quanpin_url': 'c1111027376305', 'longitude': 116.236519, 'id': 1111027376305}, {'transPrice': 50035, 'latitude': 39.90638, 'name': '鲁谷村', 'quanpin_url': 'c1111027377828', 'longitude': 116.243611, 'id': 1111027377828}, {'transPrice': 56498, 'latitude': 39.910338, 'name': '鲁谷74号院', 'quanpin_url': 'c1111027377826', 'longitude': 116.250662, 'id': 1111027377826}, {'transPrice': 48319, 'latitude': 39.908514, 'name': '久筑物业', 'quanpin_url': 'c1111027377582', 'longitude': 116.229771, 'id': 1111027377582}, {'transPrice': 51237, 'latitude': 39.899741, 'name': '天和景园', 'quanpin_url': 'c1111027379830', 'longitude': 116.228657, 'id': 1111027379830}, {'transPrice': 54720, 'latitude': 39.89514, 'name': '京汉旭城三期', 'quanpin_url': 'c1111027377149', 'longitude': 116.233257, 'id': 1111027377149}, {'transPrice': 58807, 'latitude': 39.905843, 'name': '玉泉路65号院', 'quanpin_url': 'c1111027381964', 'longitude': 116.258276, 'id': 1111027381964}, {'transPrice': 69736, 'latitude': 39.906163, 'name': '玉兴园', 'quanpin_url': 'c1111027382169', 'longitude': 116.251992, 'id': 1111027382169}, {'transPrice': 55575, 'latitude': 39.905019, 'name': '玉泉路甲65号院', 'quanpin_url': 'c1111046966469', 'longitude': 116.258408, 'id': 1111046966469}, {'transPrice': 45980, 'latitude': 39.895397, 'name': '八宝山南路29号院', 'quanpin_url': 'c1111027375718', 'longitude': 116.236175, 'id': 1111027375718}, {'transPrice': 52968, 'latitude': 39.909302, 'name': '六场宿舍', 'quanpin_url': 'c1111027377772', 'longitude': 116.224441, 'id': 1111027377772}, {'transPrice': 47547, 'latitude': 39.909302, 'name': '八场宿舍', 'quanpin_url': 'c1111027375731', 'longitude': 116.223609, 'id': 1111027375731}, {'transPrice': 55670, 'latitude': 39.910788, 'name': '北方中惠国际中心', 'quanpin_url': 'c1111027375799', 'longitude': 116.232159, 'id': 1111027375799}, {'transPrice': None, 'latitude': 39.904846, 'name': '雕塑园南街18号院', 'quanpin_url': 'c1111046463472', 'longitude': 116.249852, 'id': 1111046463472}]","[0, 0, 0, 0, 0, 0, 0, 0, 0, 0, 0, 0]","[None, None, None, None, None, None, None, None, None, None, None, None]",18335694,鲁谷,,,"['3月', '4月', '5月', '6月', '7月', '8月', '9月', '10月', '11月', '12月', '1月', '2月']","[306, 267, 226, 220, 259, 196, 220, 170, 213, 227, 176, 97]",39.892201060133,"[69389, 72108, 66042, 67700, 62583, 63453, 61683, 61877, 61503, 60156, 58427, 61686]","[69344, 71942, 64847, 69072, 63357, 61860, 59183, 61089, 60092, 58300, 57230, 60682]","[67667, 69877, 64739, 66172, 60991, 62128, 60492, 58833, 58267, 57683, 57993, 60463]","[75717, 76879, 71761, 72127, 71090, 68537, 66950, 68992, 72713, 68947, 61523, 66054]","[74783, 88821, 65616, 83284, 52873, 62125, 60911, 80345, 67841, 82302, 60467, 70946]",116.22752289373,"['03月', '04月', '05月', '06月', '07月', '08月', '09月', '10月', '11月', '12月', '01月', '02月']","[62941, 63518, 61573, 59035, 57303, 56426, 54834, 53602, 53866, 52617, 52105, 52328]","[63562, 64117, 61550, 59902, 58096, 56805, 55172, 54010, 54055, 52426, 51442, 51717]","[63105, 63634, 61112, 58619, 56902, 55641, 54492, 53457, 53837, 52404, 51914, 52020]","[62170, 63087, 59946, 58055, 56541, 55710, 53968, 53398, 53606, 52463, 52056, 52369]","[65700, 65392, 63309, 62106, 60375, 60804, 57255, 57147, 58803, 54934, 55219, 55071]","[12999, 8418, 8078, 7176, 8424, 6104, 6807, 7096, 6450, 7449, 6783, 2505]",52328
5ab23164e43c7932fccb3a4e,110000,北京,"[{'transPrice': 47869, 'latitude': 39.899289, 'name': '新华联家园北区', 'quanpin_url': 'c1111027380846', 'longitude': 116.648674, 'id': 1111027380846}, {'transPrice': 46418, 'latitude': 39.896263, 'name': '新华联家园南区', 'quanpin_url': 'c1111027380847', 'longitude': 116.647356, 'id': 1111027380847}, {'transPrice': 42665, 'latitude': 39.898186, 'name': '苏荷时代', 'quanpin_url': 'c1111027379287', 'longitude': 116.6512, 'id': 1111027379287}, {'transPrice': 48316, 'latitude': 39.894325, 'name': '巴克摩界', 'quanpin_url': 'c1111027375961', 'longitude': 116.648559, 'id': 1111027375961}, {'transPrice': 42596, 'latitude': 39.902087, 'name': '雅丽世居', 'quanpin_url': 'c1111027381874', 'longitude': 116.651427, 'id': 1111027381874}, {'transPrice': 44366, 'latitude': 39.901479, 'name': '日光清城', 'quanpin_url': 'c1111027379008', 'longitude': 116.653763, 'id': 1111027379008}, {'transPrice': 44283, 'latitude': 39.895875, 'name': '翠屏北里西区', 'quanpin_url': 'c1111027376508', 'longitude': 116.651506, 'id': 1111027376508}, {'transPrice': 45286, 'latitude': 39.893536, 'name': '巴克寓所', 'quanpin_url': 'c1111027375964', 'longitude': 116.645523, 'id': 1111027375964}, {'transPrice': 48140, 'latitude': 39.897699, 'name': '葵花社', 'quanpin_url': 'c1111027377615', 'longitude': 116.653315, 'id': 1111027377615}, {'transPrice': 39621, 'latitude': 39.900279, 'name': '达富苑', 'quanpin_url': 'c1111027376856', 'longitude': 116.656342, 'id': 1111027376856}, {'transPrice': 40523, 'latitude': 39.901631, 'name': '果园西小区', 'quanpin_url': 'c1111027374834', 'longitude': 116.659332, 'id': 1111027374834}, {'transPrice': 47722, 'latitude': 39.89598, 'name': '翠屏北里东区', 'quanpin_url': 'c1111027376507', 'longitude': 116.654727, 'id': 1111027376507}, {'transPrice': 44851, 'latitude': 39.897618, 'name': '葛布店东里', 'quanpin_url': 'c1111027374495', 'longitude': 116.674981, 'id': 1111027374495}, {'transPrice': 42059, 'latitude': 39.897465, 'name': '葛布店南里', 'quanpin_url': 'c1111027374496', 'longitude': 116.668441, 'id': 1111027374496}, {'transPrice': 40115, 'latitude': 39.902756, 'name': '果园233号院', 'quanpin_url': 'c1111027374766', 'longitude': 116.656576, 'id': 1111027374766}, {'transPrice': 44721, 'latitude': 39.899598, 'name': '葛布店北里', 'quanpin_url': 'c1111027374494', 'longitude': 116.66424, 'id': 1111027374494}, {'transPrice': 43799, 'latitude': 39.893384, 'name': '探矿家属院', 'quanpin_url': 'c1111027379893', 'longitude': 116.642694, 'id': 1111027379893}, {'transPrice': 36640, 'latitude': 39.903236, 'name': '复兴南里', 'quanpin_url': 'c1111027374407', 'longitude': 116.653691, 'id': 1111027374407}, {'transPrice': 43123, 'latitude': 39.899011, 'name': '天元小区', 'quanpin_url': 'c1111027380122', 'longitude': 116.646425, 'id': 1111027380122}, {'transPrice': 40372, 'latitude': 39.90116, 'name': '艺苑西里', 'quanpin_url': 'c1111027382223', 'longitude': 116.675538, 'id': 1111027382223}, {'transPrice': 46058, 'latitude': 39.898048, 'name': '北机家属院', 'quanpin_url': 'c1111027375901', 'longitude': 116.64378, 'id': 1111027375901}, {'transPrice': 39839, 'latitude': 39.901382, 'name': '蓝山国际公寓', 'quanpin_url': 'c1111027378060', 'longitude': 116.663896, 'id': 1111027378060}, {'transPrice': 38496, 'latitude': 39.895778, 'name': '景欣园', 'quanpin_url': 'c1111027377476', 'longitude': 116.6694, 'id': 1111027377476}, {'transPrice': 39618, 'latitude': 39.901645, 'name': '北苑南路20号院', 'quanpin_url': 'c1111027376266', 'longitude': 116.651822, 'id': 1111027376266}, {'transPrice': 42289, 'latitude': 39.897416, 'name': '运河西大街8号院', 'quanpin_url': 'c1111027381734', 'longitude': 116.65551, 'id': 1111027381734}, {'transPrice': 42915, 'latitude': 39.899057, 'name': '果园222号院', 'quanpin_url': 'c1111027374763', 'longitude': 116.658236, 'id': 1111027374763}, {'transPrice': 44306, 'latitude': 39.899907, 'name': '艺苑西街9号院', 'quanpin_url': 'c1111027382222', 'longitude': 116.675421, 'id': 1111027382222}, {'transPrice': 37909, 'latitude': 39.903073, 'name': '果园235号院', 'quanpin_url': 'c1111027374767', 'longitude': 116.655303, 'id': 1111027374767}, {'transPrice': 42457, 'latitude': 39.901977, 'name': '新华南路153号院', 'quanpin_url': 'c1111027380860', 'longitude': 116.662314, 'id': 1111027380860},